{"type":"FeatureCollection","features":[{"type":"Feature","geometry":{"type":"Point","coordinates":[-73.77104996269101,42.6613900257533]},"properties":{"OGC_FID":0,"cdtabike_i":1,"id":"p1","town":"Albany","name":"405 Washington Ave Albany, NY","latitude":42.6614,"longitude":-73.7711,"address":"405 Washington Ave"}},{"type":"Feature","geometry":{"type":"Point","coordinates":[-73.82559997891175,42.68520003074487]},"properties":{"OGC_FID":1,"cdtabike_i":2,"id":"p2","town":"Albany","name":"Education Ln, UAlbany Albany, NY","latitude":42.6852,"longitude":-73.8256,"address":"Education Ln, UAlbany"}},{"type":"Feature","geometry":{"type":"Point","coordinates":[-73.82811996277408,42.68967996052168]},"properties":{"OGC_FID":2,"cdtabike_i":3,"id":"p3","town":"Albany","name":"Empire Commons, UAlbany Albany, NY","latitude":42.6897,"longitude":-73.8281,"address":"Empire Commons, UAlbany"}},{"type":"Feature","geometry":{"type":"Point","coordinates":[-73.79308004011332,42.72761002652996]},"properties":{"OGC_FID":3,"cdtabike_i":4,"id":"p4","town":"Albany","name":"645 Albany Shaker Road Albany, NY","latitude":42.7276,"longitude":-73.7931,"address":"645 Albany Shaker Road"}},{"type":"Feature","geometry":{"type":"Point","coordinates":[-73.77820000278298,42.65899998716403]},"properties":{"OGC_FID":4,"cdtabike_i":5,"id":"p5","town":"Albany","name":"747 Madison Ave Albany, NY","latitude":42.659,"longitude":-73.7782,"address":"747 Madison Ave"}},{"type":"Feature","geometry":{"type":"Point","coordinates":[-73.75030001016795,42.64720001804882]},"properties":{"OGC_FID":5,"cdtabike_i":6,"id":"p6","town":"Albany","name":"376 Broadway Albany, NY","latitude":42.6472,"longitude":-73.7503,"address":"376 Broadway"}},{"type":"Feature","geometry":{"type":"Point","coordinates":[-73.7570000005784,42.656799961760846]},"properties":{"OGC_FID":6,"cdtabike_i":7,"id":"p7","town":"Albany","name":"171 Sheridan Ave Albany, NY","latitude":42.6568,"longitude":-73.757,"address":"171 Sheridan Ave"}},{"type":"Feature","geometry":{"type":"Point","coordinates":[-73.75789998563835,42.65650005031663]},"properties":{"OGC_FID":7,"cdtabike_i":8,"id":"p8","town":"Albany","name":"176 Sheridan Ave Albany, NY","latitude":42.6565,"longitude":-73.7579,"address":"176 Sheridan Ave"}},{"type":"Feature","geometry":{"type":"Point","coordinates":[-73.75030003601847,42.65410003973593]},"properties":{"OGC_FID":8,"cdtabike_i":9,"id":"p9","town":"Albany","name":"5 Clinton Square Albany, NY","latitude":42.6541,"longitude":-73.7503,"address":"5 Clinton Square"}},{"type":"Feature","geometry":{"type":"Point","coordinates":[-73.7987600558079,42.68340002087008]},"properties":{"OGC_FID":9,"cdtabike_i":10,"id":"p10","town":"Albany","name":"65 Tremont St. Albany, NY","latitude":42.6834,"longitude":-73.7988,"address":"65 Tremont St."}},{"type":"Feature","geometry":{"type":"Point","coordinates":[-73.78612996683842,42.65383002631294]},"properties":{"OGC_FID":10,"cdtabike_i":11,"id":"p11","town":"Albany","name":"405 Quail St Albany, NY","latitude":42.6538,"longitude":-73.7861,"address":"405 Quail St"}},{"type":"Feature","geometry":{"type":"Point","coordinates":[-73.74759998262772,42.65400004220728]},"properties":{"OGC_FID":11,"cdtabike_i":12,"id":"p12","town":"Albany","name":"19 Quackenbush Square Albany, NY","latitude":42.654,"longitude":-73.7476,"address":"19 Quackenbush Square"}},{"type":"Feature","geometry":{"type":"Point","coordinates":[-73.75163997383663,42.648930033212686]},"properties":{"OGC_FID":12,"cdtabike_i":13,"id":"p13","town":"Albany","name":"54 State St. Albany, NY","latitude":42.6489,"longitude":-73.7516,"address":"54 State St."}},{"type":"Feature","geometry":{"type":"Point","coordinates":[-73.74978998983686,42.650149998284405]},"properties":{"OGC_FID":13,"cdtabike_i":14,"id":"p14","town":"Albany","name":"515 Broadway Albany, NY","latitude":42.6501,"longitude":-73.7498,"address":"515 Broadway"}},{"type":"Feature","geometry":{"type":"Point","coordinates":[-73.77526997647243,42.65927996082295]},"properties":{"OGC_FID":14,"cdtabike_i":15,"id":"p15","town":"Albany","name":"Washington Park, Thurlow Ter. Albany, NY","latitude":42.6593,"longitude":-73.7753,"address":"Washington Park, Thurlow Ter."}},{"type":"Feature","geometry":{"type":"Point","coordinates":[-73.77593998347753,42.65801997291809]},"properties":{"OGC_FID":15,"cdtabike_i":16,"id":"p16","town":"Albany","name":"Washington Park tennis courts Albany, NY","latitude":42.658,"longitude":-73.7759,"address":"Washington Park tennis courts"}},{"type":"Feature","geometry":{"type":"Point","coordinates":[-73.77015001574192,42.65803994944096]},"properties":{"OGC_FID":16,"cdtabike_i":17,"id":"p17","town":"Albany","name":"Washington Park playground Albany, NY","latitude":42.658,"longitude":-73.7702,"address":"Washington Park playground Albany, NY"}},{"type":"Feature","geometry":{"type":"Point","coordinates":[-73.77170000377136,42.65609998097721]},"properties":{"OGC_FID":17,"cdtabike_i":18,"id":"p18","town":"Albany","name":"Washington Park lake house Albany, NY","latitude":42.6561,"longitude":-73.7717,"address":"Washington Park lake house"}},{"type":"Feature","geometry":{"type":"Point","coordinates":[-73.76759997236881,42.6559999972576]},"properties":{"OGC_FID":18,"cdtabike_i":19,"id":"p19","town":"Albany","name":"Washington Park Rd. at Lancaster St.","latitude":42.656,"longitude":-73.7676,"address":"Washington Park Rd. at Lancaster St."}},{"type":"Feature","geometry":{"type":"Point","coordinates":[-73.78934002072864,42.64173001942949]},"properties":{"OGC_FID":19,"cdtabike_i":20,"id":"p20","town":"Albany","name":"108 Whitehall Rd. Albany, NY","latitude":42.6417,"longitude":-73.7893,"address":"108 Whitehall Rd."}},{"type":"Feature","geometry":{"type":"Point","coordinates":[-73.81612006245564,42.673329963809856]},"properties":{"OGC_FID":20,"cdtabike_i":21,"id":"p21","town":"Albany","name":"1044 Western Ave. Albany, NY","latitude":42.6733,"longitude":-73.8161,"address":"1044 Western Ave."}},{"type":"Feature","geometry":{"type":"Point","coordinates":[-73.75645004841442,42.64151001261205]},"properties":{"OGC_FID":21,"cdtabike_i":22,"id":"p22","town":"Albany","name":"274 S. Pearl St. Albany, NY","latitude":42.6415,"longitude":-73.7565,"address":"274 S. Pearl St."}},{"type":"Feature","geometry":{"type":"Point","coordinates":[-73.74097996507652,42.67321000963966]},"properties":{"OGC_FID":22,"cdtabike_i":23,"id":"p23","town":"Albany","name":"570 North Pearl St. Albany, NY","latitude":42.6732,"longitude":-73.741,"address":"570 North Pearl St."}},{"type":"Feature","geometry":{"type":"Point","coordinates":[-73.77516005035933,42.66857002386695]},"properties":{"OGC_FID":23,"cdtabike_i":24,"id":"p24","town":"Albany","name":"676 Clinton Ave. Albany, NY","latitude":42.6686,"longitude":-73.7752,"address":"676 Clinton Ave."}},{"type":"Feature","geometry":{"type":"Point","coordinates":[-73.76664996358588,42.66182997147471]},"properties":{"OGC_FID":24,"cdtabike_i":25,"id":"p25","town":"Albany","name":"400 Sheridan Ave. Albany, NY","latitude":42.6618,"longitude":-73.7666,"address":"400 Sheridan Ave."}},{"type":"Feature","geometry":{"type":"Point","coordinates":[-73.74998603031263,42.66232396286619]},"properties":{"OGC_FID":25,"cdtabike_i":26,"id":"p26","town":"Albany","name":"1 Arbor Dr. Albany, NY","latitude":42.6623,"longitude":-73.75,"address":"1 Arbor Dr."}},{"type":"Feature","geometry":{"type":"Point","coordinates":[-73.76897000424582,42.64784002702007]},"properties":{"OGC_FID":26,"cdtabike_i":27,"id":"p27","town":"Albany","name":"100 Delaware Ave. Albany, NY","latitude":42.6478,"longitude":-73.769,"address":"100 Delaware Ave."}},{"type":"Feature","geometry":{"type":"Point","coordinates":[-73.79518000414234,42.642670001778356]},"properties":{"OGC_FID":27,"cdtabike_i":28,"id":"p28","town":"Albany","name":"100 Elbel Ct. Albany, NY","latitude":42.6427,"longitude":-73.7952,"address":"100 Elbel Ct."}},{"type":"Feature","geometry":{"type":"Point","coordinates":[-73.76961997949863,42.649289975927104]},"properties":{"OGC_FID":28,"cdtabike_i":29,"id":"p29","town":"Albany","name":"45 Delaware Ave. Albany, NY","latitude":42.6493,"longitude":-73.7696,"address":"45 Delaware Ave."}},{"type":"Feature","geometry":{"type":"Point","coordinates":[-73.76786004261707,42.651720014733776]},"properties":{"OGC_FID":29,"cdtabike_i":30,"id":"p30","town":"Albany","name":"Delaware Ave. and Jefferson St. Albany, NY","latitude":42.6517,"longitude":-73.7679,"address":"Delaware Ave. and Jefferson St."}},{"type":"Feature","geometry":{"type":"Point","coordinates":[-73.76747002385972,42.65227001487951]},"properties":{"OGC_FID":30,"cdtabike_i":31,"id":"p31","town":"Albany","name":"Madison Ave. and Lark St. Albany, NY","latitude":42.6523,"longitude":-73.7675,"address":"Madison Ave. and Lark St."}},{"type":"Feature","geometry":{"type":"Point","coordinates":[-73.76739995136647,42.65264995141393]},"properties":{"OGC_FID":31,"cdtabike_i":32,"id":"p32","town":"Albany","name":"Lark St. and Madison Ave. Albany, NY","latitude":42.6527,"longitude":-73.7674,"address":"Lark St. and Madison Ave."}},{"type":"Feature","geometry":{"type":"Point","coordinates":[-73.76733999620933,42.65288997697856]},"properties":{"OGC_FID":32,"cdtabike_i":33,"id":"p33","town":"Albany","name":"295 Lark St. Albany, NY","latitude":42.6529,"longitude":-73.7673,"address":"295 Lark St."}},{"type":"Feature","geometry":{"type":"Point","coordinates":[-73.76708999052535,42.65295997081257]},"properties":{"OGC_FID":33,"cdtabike_i":34,"id":"p34","town":"Albany","name":"290 Lark St. Albany, NY","latitude":42.653,"longitude":-73.7671,"address":"290 Lark St."}},{"type":"Feature","geometry":{"type":"Point","coordinates":[-73.76664005293475,42.65340997446421]},"properties":{"OGC_FID":34,"cdtabike_i":35,"id":"p35","town":"Albany","name":"278 Lark St. Albany, NY","latitude":42.6534,"longitude":-73.7666,"address":"278 Lark St."}},{"type":"Feature","geometry":{"type":"Point","coordinates":[-73.76666004346633,42.653550023154224]},"properties":{"OGC_FID":35,"cdtabike_i":36,"id":"p36","town":"Albany","name":"275 Lark St. Albany, NY","latitude":42.6536,"longitude":-73.7667,"address":"275 Lark St."}},{"type":"Feature","geometry":{"type":"Point","coordinates":[-73.76650000983403,42.65353999796056]},"properties":{"OGC_FID":36,"cdtabike_i":37,"id":"p37","town":"Albany","name":"272 Lark St. Albany, NY","latitude":42.6535,"longitude":-73.7665,"address":"272 Lark St."}},{"type":"Feature","geometry":{"type":"Point","coordinates":[-73.76654000707701,42.65366999423033]},"properties":{"OGC_FID":37,"cdtabike_i":38,"id":"p38","town":"Albany","name":"269 Lark St. Albany, NY","latitude":42.6537,"longitude":-73.7665,"address":"269 Lark St."}},{"type":"Feature","geometry":{"type":"Point","coordinates":[-73.76588001768037,42.65411999431715]},"properties":{"OGC_FID":38,"cdtabike_i":39,"id":"p39","town":"Albany","name":"254-260 Lark St. Albany, NY","latitude":42.6541,"longitude":-73.7659,"address":"254-260 Lark St."}},{"type":"Feature","geometry":{"type":"Point","coordinates":[-73.76603002814983,42.654170019741464]},"properties":{"OGC_FID":39,"cdtabike_i":40,"id":"p40","town":"Albany","name":"259 Lark St. Albany, NY","latitude":42.6542,"longitude":-73.766,"address":"259 Lark St."}},{"type":"Feature","geometry":{"type":"Point","coordinates":[-73.76566998929772,42.65433995828129]},"properties":{"OGC_FID":40,"cdtabike_i":41,"id":"p41","town":"Albany","name":"231 Jay St. Albany, NY","latitude":42.6543,"longitude":-73.7657,"address":"231 Jay St."}},{"type":"Feature","geometry":{"type":"Point","coordinates":[-73.7657899872596,42.6544099606175]},"properties":{"OGC_FID":41,"cdtabike_i":42,"id":"p42","town":"Albany","name":"247 Lark St. Albany, NY","latitude":42.6544,"longitude":-73.7658,"address":"247 Lark St."}},{"type":"Feature","geometry":{"type":"Point","coordinates":[-73.76573999821343,42.65444997819917]},"properties":{"OGC_FID":42,"cdtabike_i":43,"id":"p43","town":"Albany","name":"247 Lark St. Albany, NY","latitude":42.6544,"longitude":-73.7657,"address":"247 Lark St."}},{"type":"Feature","geometry":{"type":"Point","coordinates":[-73.76547004540295,42.654540009605014]},"properties":{"OGC_FID":43,"cdtabike_i":44,"id":"p44","town":"Albany","name":"248 Lark St. Albany, NY","latitude":42.6545,"longitude":-73.7655,"address":"248 Lark St."}},{"type":"Feature","geometry":{"type":"Point","coordinates":[-73.76525996386192,42.654660033033956]},"properties":{"OGC_FID":44,"cdtabike_i":45,"id":"p45","town":"Albany","name":"Lancaster St. at Lark St. Albany, NY","latitude":42.6547,"longitude":-73.7653,"address":"Lancaster St. at Lark St."}},{"type":"Feature","geometry":{"type":"Point","coordinates":[-73.76511997741046,42.65504997449623]},"properties":{"OGC_FID":45,"cdtabike_i":46,"id":"p46","town":"Albany","name":"235 Lark St. Albany, NY","latitude":42.6551,"longitude":-73.7651,"address":"235 Lark St."}},{"type":"Feature","geometry":{"type":"Point","coordinates":[-73.76484998394508,42.65514000416648]},"properties":{"OGC_FID":46,"cdtabike_i":47,"id":"p47","town":"Albany","name":"Lark St. at Chestnut St. Albany, NY","latitude":42.6551,"longitude":-73.7648,"address":"Lark St. at Chestnut St."}},{"type":"Feature","geometry":{"type":"Point","coordinates":[-73.76489001589577,42.65527000119652]},"properties":{"OGC_FID":47,"cdtabike_i":48,"id":"p48","town":"Albany","name":"227 Lark St. Albany, NY","latitude":42.6553,"longitude":-73.7649,"address":"227 Lark St."}},{"type":"Feature","geometry":{"type":"Point","coordinates":[-73.7646899488262,42.655480038782315]},"properties":{"OGC_FID":48,"cdtabike_i":49,"id":"p49","town":"Albany","name":"217-219 Lark St. Albany, NY","latitude":42.6555,"longitude":-73.7647,"address":"217-219 Lark St."}},{"type":"Feature","geometry":{"type":"Point","coordinates":[-73.76442996630354,42.65555004504423]},"properties":{"OGC_FID":49,"cdtabike_i":50,"id":"p50","town":"Albany","name":"216 Lark St. Albany, NY","latitude":42.6555,"longitude":-73.7644,"address":"216 Lark St."}},{"type":"Feature","geometry":{"type":"Point","coordinates":[-73.76457002260696,42.655590019999885]},"properties":{"OGC_FID":50,"cdtabike_i":51,"id":"p51","town":"Albany","name":"215 Lark St. Albany, NY","latitude":42.6556,"longitude":-73.7646,"address":"215 Lark St."}},{"type":"Feature","geometry":{"type":"Point","coordinates":[-73.76457001008981,42.655669954979906]},"properties":{"OGC_FID":51,"cdtabike_i":52,"id":"p52","town":"Albany","name":"216 Lark St. Albany, NY","latitude":42.6557,"longitude":-73.7646,"address":"216 Lark St."}},{"type":"Feature","geometry":{"type":"Point","coordinates":[-73.7643899803649,42.655760012270925]},"properties":{"OGC_FID":52,"cdtabike_i":53,"id":"p53","town":"Albany","name":"211 Lark St. Albany, NY","latitude":42.6558,"longitude":-73.7644,"address":"211 Lark St."}},{"type":"Feature","geometry":{"type":"Point","coordinates":[-73.76416002475959,42.65572999692133]},"properties":{"OGC_FID":53,"cdtabike_i":54,"id":"p54","town":"Albany","name":"State St. at Lark St. Albany, NY","latitude":42.6557,"longitude":-73.7642,"address":"State St. at Lark St."}},{"type":"Feature","geometry":{"type":"Point","coordinates":[-73.76404993794588,42.65608997161284]},"properties":{"OGC_FID":54,"cdtabike_i":55,"id":"p55","town":"Albany","name":"205 Lark St. Albany, NY","latitude":42.6561,"longitude":-73.764,"address":"205 Lark St."}},{"type":"Feature","geometry":{"type":"Point","coordinates":[-73.76393000055654,42.656039944764906]},"properties":{"OGC_FID":55,"cdtabike_i":56,"id":"p56","town":"Albany","name":"204 Lark St. Albany, NY","latitude":42.656,"longitude":-73.7639,"address":"204 Lark St."}},{"type":"Feature","geometry":{"type":"Point","coordinates":[-73.76394998576032,42.65617999382408]},"properties":{"OGC_FID":56,"cdtabike_i":57,"id":"p57","town":"Albany","name":"197 Lark St. Albany, NY","latitude":42.6562,"longitude":-73.7639,"address":"197 Lark St."}},{"type":"Feature","geometry":{"type":"Point","coordinates":[-73.76360997385774,42.65633998371654]},"properties":{"OGC_FID":57,"cdtabike_i":58,"id":"p58","town":"Albany","name":"200 Lark St. Albany, NY","latitude":42.6563,"longitude":-73.7636,"address":"200 Lark St."}},{"type":"Feature","geometry":{"type":"Point","coordinates":[-73.77803001669685,42.64266997386874]},"properties":{"OGC_FID":58,"cdtabike_i":59,"id":"p59","town":"Albany","name":"331 Delaware Ave. Albany, NY","latitude":42.6427,"longitude":-73.778,"address":"331 Delaware Ave."}},{"type":"Feature","geometry":{"type":"Point","coordinates":[-73.79616998383622,42.65488005051482]},"properties":{"OGC_FID":59,"cdtabike_i":60,"id":"p60","town":"Albany","name":"455 New Scotland Ave. Albany, NY","latitude":42.6549,"longitude":-73.7962,"address":"455 New Scotland Ave."}},{"type":"Feature","geometry":{"type":"Point","coordinates":[-73.79086996249725,42.66654995640322]},"properties":{"OGC_FID":60,"cdtabike_i":61,"id":"p61","town":"Albany","name":"517 Western Ave. Albany, NY","latitude":42.6666,"longitude":-73.7909,"address":"517 Western Ave."}},{"type":"Feature","geometry":{"type":"Point","coordinates":[-73.75541002805744,42.643020051101786]},"properties":{"OGC_FID":61,"cdtabike_i":62,"id":"p62","town":"Albany","name":"200 S. Pearl St. Albany, NY","latitude":42.643,"longitude":-73.7554,"address":"200 S. Pearl St."}},{"type":"Feature","geometry":{"type":"Point","coordinates":[-73.75481999931598,42.64061003495318]},"properties":{"OGC_FID":62,"cdtabike_i":63,"id":"p63","town":"Albany","name":"200 Green St. Albany, NY","latitude":42.6406,"longitude":-73.7548,"address":"200 Green St."}},{"type":"Feature","geometry":{"type":"Point","coordinates":[-73.75522998280788,42.6396699974048]},"properties":{"OGC_FID":63,"cdtabike_i":64,"id":"p64","town":"Albany","name":"220 Green St. Albany, NY","latitude":42.6397,"longitude":-73.7552,"address":"220 Green St."}},{"type":"Feature","geometry":{"type":"Point","coordinates":[-73.75538003085123,42.63903999731859]},"properties":{"OGC_FID":64,"cdtabike_i":65,"id":"p65","town":"Albany","name":"230 Green St. Albany, NY","latitude":42.639,"longitude":-73.7554,"address":"230 Green St."}},{"type":"Feature","geometry":{"type":"Point","coordinates":[-73.75536994621466,42.663690019322324]},"properties":{"OGC_FID":65,"cdtabike_i":66,"id":"p66","town":"Albany","name":"5 Lark St. Albany, NY","latitude":42.6637,"longitude":-73.7554,"address":"5 Lark St."}},{"type":"Feature","geometry":{"type":"Point","coordinates":[-73.74179997716871,42.674399973296275]},"properties":{"OGC_FID":66,"cdtabike_i":67,"id":"p67","town":"Albany","name":"41 Jennings Dr. Albany, NY","latitude":42.6744,"longitude":-73.7418,"address":"41 Jennings Dr."}},{"type":"Feature","geometry":{"type":"Point","coordinates":[-73.76538995742882,42.64139994370543]},"properties":{"OGC_FID":67,"cdtabike_i":68,"id":"p68","town":"Albany","name":"158 3rd Ave. Albany, NY","latitude":42.6414,"longitude":-73.7654,"address":"158 3rd Ave."}},{"type":"Feature","geometry":{"type":"Point","coordinates":[-73.76461997112402,42.64123996256554]},"properties":{"OGC_FID":68,"cdtabike_i":69,"id":"p69","town":"Albany","name":"158 3rd Ave. Albany, NY","latitude":42.6412,"longitude":-73.7646,"address":"158 3rd Ave."}},{"type":"Feature","geometry":{"type":"Point","coordinates":[-73.7529099727273,42.65926001683103]},"properties":{"OGC_FID":69,"cdtabike_i":70,"id":"p70","town":"Albany","name":"Ten Broeck St. at North Swan St. Albany, NY","latitude":42.6593,"longitude":-73.7529,"address":"Ten Broeck St. at North Swan St."}},{"type":"Feature","geometry":{"type":"Point","coordinates":[-73.75325999609491,42.659369976733096]},"properties":{"OGC_FID":70,"cdtabike_i":71,"id":"p71","town":"Albany","name":"3rd St. at North Swan St. Albany, NY","latitude":42.6594,"longitude":-73.7533,"address":"3rd St. at North Swan St."}},{"type":"Feature","geometry":{"type":"Point","coordinates":[-73.75523003979386,42.65744998303022]},"properties":{"OGC_FID":71,"cdtabike_i":72,"id":"p72","town":"Albany","name":"North Swan St. at Clinton Ave. Albany, NY","latitude":42.6574,"longitude":-73.7552,"address":"North Swan St. at Clinton Ave."}},{"type":"Feature","geometry":{"type":"Point","coordinates":[-73.76511996798864,42.63200999645757]},"properties":{"OGC_FID":72,"cdtabike_i":73,"id":"p73","town":"Albany","name":"625 South Pearl St. Albany, NY","latitude":42.632,"longitude":-73.7651,"address":"625 South Pearl St."}},{"type":"Feature","geometry":{"type":"Point","coordinates":[-73.76404004976604,42.631970025034356]},"properties":{"OGC_FID":73,"cdtabike_i":74,"id":"p148","town":"Albany","name":"S. Pearl St. and Mt. Hope Dr. Albany, NY","latitude":42.632,"longitude":-73.764,"address":"S. Pearl St. and Mt. Hope Dr."}},{"type":"Feature","geometry":{"type":"Point","coordinates":[-73.76020000416972,42.64259998440079]},"properties":{"OGC_FID":74,"cdtabike_i":75,"id":"p75","town":"Albany","name":"2 Lincoln Sq. Albany, NY","latitude":42.6426,"longitude":-73.7602,"address":"2 Lincoln Sq."}},{"type":"Feature","geometry":{"type":"Point","coordinates":[-73.74858994366615,42.65910004485118]},"properties":{"OGC_FID":75,"cdtabike_i":76,"id":"p76","town":"Albany","name":"270 North Pearl St. Albany, NY","latitude":42.6591,"longitude":-73.7486,"address":"270 North Pearl St."}},{"type":"Feature","geometry":{"type":"Point","coordinates":[-73.76829000204249,42.652629982905076]},"properties":{"OGC_FID":76,"cdtabike_i":77,"id":"p77","town":"Albany","name":"448 Madison Ave. Albany, NY","latitude":42.6526,"longitude":-73.7683,"address":"448 Madison Ave."}},{"type":"Feature","geometry":{"type":"Point","coordinates":[-73.76858004898756,42.65281003589294]},"properties":{"OGC_FID":77,"cdtabike_i":78,"id":"p78","town":"Albany","name":"454 Madison Ave. Albany, NY","latitude":42.6528,"longitude":-73.7686,"address":"454 Madison Ave."}},{"type":"Feature","geometry":{"type":"Point","coordinates":[-73.77160003758972,42.64538002412134]},"properties":{"OGC_FID":78,"cdtabike_i":79,"id":"p79","town":"Albany","name":"170 Delaware Ave. Albany, NY","latitude":42.6454,"longitude":-73.7716,"address":"170 Delaware Ave."}},{"type":"Feature","geometry":{"type":"Point","coordinates":[-73.77495999026839,42.64377003471366]},"properties":{"OGC_FID":79,"cdtabike_i":80,"id":"p80","town":"Albany","name":"250 Delaware Ave. Albany, NY","latitude":42.6438,"longitude":-73.775,"address":"250 Delaware Ave."}},{"type":"Feature","geometry":{"type":"Point","coordinates":[-73.77681998951883,42.64300000144101]},"properties":{"OGC_FID":80,"cdtabike_i":81,"id":"p81","town":"Albany","name":"292 Delaware Ave. Albany, NY","latitude":42.643,"longitude":-73.7768,"address":"292 Delaware Ave."}},{"type":"Feature","geometry":{"type":"Point","coordinates":[-73.7786899566474,42.64219001921934]},"properties":{"OGC_FID":81,"cdtabike_i":82,"id":"p82","town":"Albany","name":"334 Delaware Ave. Albany, NY","latitude":42.6422,"longitude":-73.7787,"address":"334 Delaware Ave."}},{"type":"Feature","geometry":{"type":"Point","coordinates":[-73.78022000927693,42.64158000058085]},"properties":{"OGC_FID":82,"cdtabike_i":83,"id":"p83","town":"Albany","name":"366 Delaware Ave. Albany, NY","latitude":42.6416,"longitude":-73.7802,"address":"366 Delaware Ave."}},{"type":"Feature","geometry":{"type":"Point","coordinates":[-73.78155005394588,42.641220010810684]},"properties":{"OGC_FID":83,"cdtabike_i":84,"id":"p84","town":"Albany","name":"415 Delaware Ave. Albany, NY","latitude":42.6412,"longitude":-73.7815,"address":"415 Delaware Ave."}},{"type":"Feature","geometry":{"type":"Point","coordinates":[-73.78413999779256,42.64015000450336]},"properties":{"OGC_FID":84,"cdtabike_i":85,"id":"p85","town":"Albany","name":"448 Delaware Ave. Albany, NY","latitude":42.6401,"longitude":-73.7841,"address":"448 Delaware Ave."}},{"type":"Feature","geometry":{"type":"Point","coordinates":[-73.78430997943559,42.640220025524634]},"properties":{"OGC_FID":85,"cdtabike_i":86,"id":"p86","town":"Albany","name":"467 Delaware Ave. Albany, NY","latitude":42.6402,"longitude":-73.7843,"address":"467 Delaware Ave."}},{"type":"Feature","geometry":{"type":"Point","coordinates":[-73.78868001417956,42.638480983132105]},"properties":{"OGC_FID":86,"cdtabike_i":87,"id":"p87","town":"Albany","name":"544 Delaware Ave. Albany, NY","latitude":42.6385,"longitude":-73.7887,"address":"544 Delaware Ave."}},{"type":"Feature","geometry":{"type":"Point","coordinates":[-73.77131998964734,42.64539004266896]},"properties":{"OGC_FID":87,"cdtabike_i":88,"id":"p88","town":"Albany","name":"300 Morton Ave. Albany, NY","latitude":42.6454,"longitude":-73.7713,"address":"300 Morton Ave."}},{"type":"Feature","geometry":{"type":"Point","coordinates":[-73.7489300413547,42.65434999689844]},"properties":{"OGC_FID":88,"cdtabike_i":89,"id":"p89","town":"Albany","name":"Broadway at Clinton Ave. Albany, NY","latitude":42.6544,"longitude":-73.7489,"address":"Broadway at Clinton Ave."}},{"type":"Feature","geometry":{"type":"Point","coordinates":[-73.75138995673102,42.647330053484865]},"properties":{"OGC_FID":89,"cdtabike_i":90,"id":"p90","town":"Albany","name":"Dallius St. at Hudson Ave. Albany, NY","latitude":42.6473,"longitude":-73.7514,"address":"Dallius St. at Hudson Ave."}},{"type":"Feature","geometry":{"type":"Point","coordinates":[-73.75106001986084,42.650409968408475]},"properties":{"OGC_FID":90,"cdtabike_i":91,"id":"p91","town":"Albany","name":"James St. at Pine St. Albany, NY","latitude":42.6504,"longitude":-73.7511,"address":"James St. at Pine St."}},{"type":"Feature","geometry":{"type":"Point","coordinates":[-73.75178999997385,42.6508499774628]},"properties":{"OGC_FID":91,"cdtabike_i":92,"id":"p92","town":"Albany","name":"39 N. Pearl St. Albany, NY","latitude":42.6508,"longitude":-73.7518,"address":"39 N. Pearl St."}},{"type":"Feature","geometry":{"type":"Point","coordinates":[-73.74994000231919,42.65516002605057]},"properties":{"OGC_FID":92,"cdtabike_i":93,"id":"p93","town":"Albany","name":"19 Clinton Ave. Albany, NY","latitude":42.6552,"longitude":-73.7499,"address":"19 Clinton Ave."}},{"type":"Feature","geometry":{"type":"Point","coordinates":[-73.74921003648332,42.65321998151013]},"properties":{"OGC_FID":93,"cdtabike_i":94,"id":"p94","town":"Albany","name":"Broadway at Orange St. Albany, NY","latitude":42.6532,"longitude":-73.7492,"address":"Broadway at Orange St."}},{"type":"Feature","geometry":{"type":"Point","coordinates":[-73.75186006444517,42.64952004910917]},"properties":{"OGC_FID":94,"cdtabike_i":95,"id":"p95","town":"Albany","name":"State St. at James St. Albany, NY","latitude":42.6495,"longitude":-73.7519,"address":"State St. at James St."}},{"type":"Feature","geometry":{"type":"Point","coordinates":[-73.75442002536295,42.65194999490253]},"properties":{"OGC_FID":95,"cdtabike_i":96,"id":"p96","town":"Albany","name":"Steuben Pl. at N. Pearl St. Albany, NY","latitude":42.6519,"longitude":-73.7544,"address":"Steuben Pl. at N. Pearl St."}},{"type":"Feature","geometry":{"type":"Point","coordinates":[-73.80993999899468,42.74556000437474]},"properties":{"OGC_FID":96,"cdtabike_i":97,"id":"p97","town":"Albany","name":"737 Albany-Shaker Rd. Albany, NY","latitude":42.7456,"longitude":-73.8099,"address":"737 Albany-Shaker Rd."}},{"type":"Feature","geometry":{"type":"Point","coordinates":[-73.81004498605957,42.745060014236685]},"properties":{"OGC_FID":97,"cdtabike_i":98,"id":"p98","town":"Albany","name":"737 Albany-Shaker Rd. Albany, NY","latitude":42.7451,"longitude":-73.81,"address":"737 Albany-Shaker Rd."}},{"type":"Feature","geometry":{"type":"Point","coordinates":[-73.7654599511615,42.65843000754599]},"properties":{"OGC_FID":98,"cdtabike_i":99,"id":"p99","town":"Albany","name":"40 Central Ave. Albany, NY","latitude":42.6584,"longitude":-73.7655,"address":"40 Central Ave."}},{"type":"Feature","geometry":{"type":"Point","coordinates":[-73.76569999062994,42.65803996640463]},"properties":{"OGC_FID":99,"cdtabike_i":100,"id":"p100","town":"Albany","name":"262 Washington Ave. Albany, NY","latitude":42.658,"longitude":-73.7657,"address":"262 Washington Ave."}},{"type":"Feature","geometry":{"type":"Point","coordinates":[-73.76878002346332,42.66163001670471]},"properties":{"OGC_FID":100,"cdtabike_i":101,"id":"p101","town":"Albany","name":"175 Central Ave. Albany, NY","latitude":42.6616,"longitude":-73.7688,"address":"175 Central Ave."}},{"type":"Feature","geometry":{"type":"Point","coordinates":[-73.77148994764607,42.663750014716534]},"properties":{"OGC_FID":101,"cdtabike_i":102,"id":"p102","town":"Albany","name":"260 Central Ave. Albany, NY","latitude":42.6638,"longitude":-73.7715,"address":"260 Central Ave."}},{"type":"Feature","geometry":{"type":"Point","coordinates":[-73.77254998449976,42.66494002467027]},"properties":{"OGC_FID":102,"cdtabike_i":103,"id":"p103","town":"Albany","name":"315 Central Ave. Albany, NY","latitude":42.6649,"longitude":-73.7725,"address":"315 Central Ave."}},{"type":"Feature","geometry":{"type":"Point","coordinates":[-73.77473003327115,42.666870009200906]},"properties":{"OGC_FID":103,"cdtabike_i":104,"id":"p104","town":"Albany","name":"391 Central Ave. Albany, NY","latitude":42.6669,"longitude":-73.7747,"address":"391 Central Ave."}},{"type":"Feature","geometry":{"type":"Point","coordinates":[-73.77792998313485,42.669370045731824]},"properties":{"OGC_FID":104,"cdtabike_i":105,"id":"p105","town":"Albany","name":"484 Central Ave. Albany, NY","latitude":42.6694,"longitude":-73.7779,"address":"484 Central Ave."}},{"type":"Feature","geometry":{"type":"Point","coordinates":[-73.77940001573656,42.670669978176576]},"properties":{"OGC_FID":105,"cdtabike_i":106,"id":"p106","town":"Albany","name":"542 Central Ave. Albany, NY","latitude":42.6707,"longitude":-73.7794,"address":"542 Central Ave."}},{"type":"Feature","geometry":{"type":"Point","coordinates":[-73.78253995247591,42.673389993415775]},"properties":{"OGC_FID":106,"cdtabike_i":107,"id":"p107","town":"Albany","name":"624 Central Ave. Albany, NY","latitude":42.6734,"longitude":-73.7825,"address":"624 Central Ave."}},{"type":"Feature","geometry":{"type":"Point","coordinates":[-73.75495900207738,42.64200905119577]},"properties":{"OGC_FID":107,"cdtabike_i":108,"id":"p108","town":"Albany","name":"175 Green St. Albany, NY","latitude":42.642,"longitude":-73.755,"address":"175 Green St."}},{"type":"Feature","geometry":{"type":"Point","coordinates":[-73.81189401018878,42.65039600726189]},"properties":{"OGC_FID":108,"cdtabike_i":109,"id":"p109","town":"Albany","name":"420 Whitehall Rd. Albany, NY","latitude":42.6504,"longitude":-73.8119,"address":"420 Whitehall Rd."}},{"type":"Feature","geometry":{"type":"Point","coordinates":[-73.80779502766403,42.6558640347868]},"properties":{"OGC_FID":109,"cdtabike_i":110,"id":"p110","town":"Albany","name":"314 S Manning St. Albany, NY","latitude":42.6559,"longitude":-73.8078,"address":"314 S. Manning St."}},{"type":"Feature","geometry":{"type":"Point","coordinates":[-73.78692501308934,42.65825105554217]},"properties":{"OGC_FID":110,"cdtabike_i":111,"id":"p111","town":"Albany","name":"650 Warren St. Albany, NY","latitude":42.6583,"longitude":-73.7869,"address":"650 Warren St."}},{"type":"Feature","geometry":{"type":"Point","coordinates":[-73.81305695707557,42.656806004423125]},"properties":{"OGC_FID":111,"cdtabike_i":112,"id":"p112","town":"Albany","name":"40 Hopewell St. Albany, NY","latitude":42.6568,"longitude":-73.8131,"address":"40 Hopewell St."}},{"type":"Feature","geometry":{"type":"Point","coordinates":[-73.75762999768217,42.6398930284644]},"properties":{"OGC_FID":112,"cdtabike_i":113,"id":"p113","town":"Albany","name":"326 S. Pearl St. Albany, NY","latitude":42.6399,"longitude":-73.7576,"address":"326 S. Pearl St."}},{"type":"Feature","geometry":{"type":"Point","coordinates":[-73.82805302552318,42.68237603600114]},"properties":{"OGC_FID":113,"cdtabike_i":114,"id":"p114","town":"Albany","name":"Physical Education Building, UAlbany, Albany, NY","latitude":42.6824,"longitude":-73.8281,"address":"SUNY Campus Rd."}},{"type":"Feature","geometry":{"type":"Point","coordinates":[-73.82423593808336,42.68519802853237]},"properties":{"OGC_FID":114,"cdtabike_i":115,"id":"p115","town":"Albany","name":"Campus Center, UAlbany, Albany, NY","latitude":42.6852,"longitude":-73.8242,"address":"SUNY Campus Rd."}},{"type":"Feature","geometry":{"type":"Point","coordinates":[-73.8248739825159,42.686471032630834]},"properties":{"OGC_FID":115,"cdtabike_i":116,"id":"p116","town":"Albany","name":"University Library, UAlbany, Albany, NY","latitude":42.6865,"longitude":-73.8249,"address":"SUNY Campus Rd."}},{"type":"Feature","geometry":{"type":"Point","coordinates":[-73.79037595092387,42.65651295325576]},"properties":{"OGC_FID":116,"cdtabike_i":117,"id":"p117","town":"Albany","name":"404 Partridge St. Albany, NY","latitude":42.6565,"longitude":-73.7904,"address":"404 Partridge St."}},{"type":"Feature","geometry":{"type":"Point","coordinates":[-73.77355795708509,42.654026962794184]},"properties":{"OGC_FID":117,"cdtabike_i":118,"id":"p118","town":"Albany","name":"Morris St. at New Scotland Ave. Albany, Ny","latitude":42.654,"longitude":-73.7736,"address":"25 New Scotland Ave."}},{"type":"Feature","geometry":{"type":"Point","coordinates":[-73.77329598438013,42.653965946701945]},"properties":{"OGC_FID":118,"cdtabike_i":119,"id":"p119","town":"Albany","name":"New Scotland Ave. and Morris St. Albany, NY","latitude":42.654,"longitude":-73.7733,"address":"New Scotland Ave. and Morris St."}},{"type":"Feature","geometry":{"type":"Point","coordinates":[-73.77372596415448,42.65333599812124]},"properties":{"OGC_FID":119,"cdtabike_i":120,"id":"p120","town":"Albany","name":"16 New Scotland Ave. Albany, NY","latitude":42.6533,"longitude":-73.7737,"address":"16 New Scotland Ave."}},{"type":"Feature","geometry":{"type":"Point","coordinates":[-73.77290200835019,42.65433197685327]},"properties":{"OGC_FID":120,"cdtabike_i":121,"id":"p121","town":"Albany","name":"11 New Scotland Ave. Albany, NY","latitude":42.6543,"longitude":-73.7729,"address":"11 New Scotland Ave."}},{"type":"Feature","geometry":{"type":"Point","coordinates":[-73.77334095861973,42.65370801391929]},"properties":{"OGC_FID":121,"cdtabike_i":122,"id":"p122","town":"Albany","name":"16 New Scotland Ave. Albany, NY","latitude":42.6537,"longitude":-73.7733,"address":"16 New Scotland Ave."}},{"type":"Feature","geometry":{"type":"Point","coordinates":[-73.80852501757975,42.664327016548356]},"properties":{"OGC_FID":122,"cdtabike_i":123,"id":"p123","town":"Albany","name":"Berkshire Blvd. at Colonial Ave. Albany, NY","latitude":42.6643,"longitude":-73.8085,"address":"Berkshire Blvd. at Colonial Ave."}},{"type":"Feature","geometry":{"type":"Point","coordinates":[-73.77991599601201,42.67797901353761]},"properties":{"OGC_FID":123,"cdtabike_i":124,"id":"p124","town":"Albany","name":"32 Essex St. Albany, NY","latitude":42.678,"longitude":-73.7799,"address":"32 Essex St."}},{"type":"Feature","geometry":{"type":"Point","coordinates":[-73.78003601443834,42.67778194791327]},"properties":{"OGC_FID":124,"cdtabike_i":125,"id":"p125","town":"Albany","name":"32 Essex St. Albany, NY","latitude":42.6778,"longitude":-73.78,"address":"32 Essex St."}},{"type":"Feature","geometry":{"type":"Point","coordinates":[-73.79049704364338,42.66595898788649]},"properties":{"OGC_FID":125,"cdtabike_i":126,"id":"p126","town":"Albany","name":"500 Western Ave. Albany, NY","latitude":42.666,"longitude":-73.7905,"address":"500 Western Ave."}},{"type":"Feature","geometry":{"type":"Point","coordinates":[-73.78929399662313,42.66466302127577]},"properties":{"OGC_FID":126,"cdtabike_i":127,"id":"p127","town":"Albany","name":"1026 Madison Ave. Albany, NY","latitude":42.6647,"longitude":-73.7893,"address":"1026 Madison Ave."}},{"type":"Feature","geometry":{"type":"Point","coordinates":[-73.78993498512975,42.665038023072704]},"properties":{"OGC_FID":127,"cdtabike_i":128,"id":"p128","town":"Albany","name":"1060 Madison Ave. Albany, NY","latitude":42.665,"longitude":-73.7899,"address":"1060 Madison Ave."}},{"type":"Feature","geometry":{"type":"Point","coordinates":[-73.79045300225921,42.66533602916049]},"properties":{"OGC_FID":128,"cdtabike_i":129,"id":"p129","town":"Albany","name":"1066 Madison Ave. Albany, NY","latitude":42.6653,"longitude":-73.7905,"address":"1066 Madison Ave."}},{"type":"Feature","geometry":{"type":"Point","coordinates":[-73.79091905293573,42.66557100906852]},"properties":{"OGC_FID":129,"cdtabike_i":130,"id":"p130","town":"Albany","name":"1080 Madison Ave. Albany, NY","latitude":42.6656,"longitude":-73.7909,"address":"1080 Madison Ave."}},{"type":"Feature","geometry":{"type":"Point","coordinates":[-73.79053797975104,42.66538696419384]},"properties":{"OGC_FID":130,"cdtabike_i":131,"id":"p131","town":"Albany","name":"1066 Madison Ave. Albany, NY","latitude":42.6654,"longitude":-73.7905,"address":"1066 Madison Ave."}},{"type":"Feature","geometry":{"type":"Point","coordinates":[-73.79148596795856,42.66592197197741]},"properties":{"OGC_FID":131,"cdtabike_i":132,"id":"p132","town":"Albany","name":"1092 Madison Ave. Albany, NY","latitude":42.6659,"longitude":-73.7915,"address":"1092 Madison Ave."}},{"type":"Feature","geometry":{"type":"Point","coordinates":[-73.79197702758051,42.666195052830304]},"properties":{"OGC_FID":132,"cdtabike_i":133,"id":"p133","town":"Albany","name":"1112 Madison Ave. Albany, NY","latitude":42.6662,"longitude":-73.792,"address":"1112 Madison Ave."}},{"type":"Feature","geometry":{"type":"Point","coordinates":[-73.7920479689502,42.66623796959965]},"properties":{"OGC_FID":133,"cdtabike_i":134,"id":"p134","town":"Albany","name":"1116 Madison Ave. Albany, NY","latitude":42.6662,"longitude":-73.792,"address":"1116 Madison Ave."}},{"type":"Feature","geometry":{"type":"Point","coordinates":[-73.7498439658862,42.6520430272443]},"properties":{"OGC_FID":134,"cdtabike_i":135,"id":"p135","town":"Albany","name":"39 Columbia St. Albany, NY","latitude":42.652,"longitude":-73.7498,"address":"39 Columbia St."}},{"type":"Feature","geometry":{"type":"Point","coordinates":[-73.76172905754743,42.640348995561475]},"properties":{"OGC_FID":135,"cdtabike_i":136,"id":"p136","town":"Albany","name":"57 Elizabeth St. Albany, NY","latitude":42.6403,"longitude":-73.7617,"address":"57 Elizabeth St."}},{"type":"Feature","geometry":{"type":"Point","coordinates":[-73.76412497966979,42.6464929981648]},"properties":{"OGC_FID":136,"cdtabike_i":137,"id":"p137","town":"Albany","name":"Lincoln Park Rd. Albany, NY","latitude":42.6465,"longitude":-73.7641,"address":"Lincoln Park Rd."}},{"type":"Feature","geometry":{"type":"Point","coordinates":[-73.77033004439076,42.64648903151555]},"properties":{"OGC_FID":137,"cdtabike_i":138,"id":"p138","town":"Albany","name":"Delaware Ave. at Morton Ave. Albany, NY","latitude":42.6465,"longitude":-73.7703,"address":"Lincoln Park Rd."}},{"type":"Feature","geometry":{"type":"Point","coordinates":[-73.77018198553328,42.646425962263145]},"properties":{"OGC_FID":138,"cdtabike_i":139,"id":"p139","town":"Albany","name":"Delaware Ave. at Morton Ave.","latitude":42.6464,"longitude":-73.7702,"address":"Lincoln Park Rd."}},{"type":"Feature","geometry":{"type":"Point","coordinates":[-73.76985799286504,42.64580697247328]},"properties":{"OGC_FID":139,"cdtabike_i":140,"id":"p140","town":"Albany","name":"Delaware Ave. at Morton Ave.","latitude":42.6458,"longitude":-73.7699,"address":"Lincoln Park Rd."}},{"type":"Feature","geometry":{"type":"Point","coordinates":[-73.76460100060038,42.64607900901506]},"properties":{"OGC_FID":140,"cdtabike_i":141,"id":"p141","town":"Albany","name":"Lincoln Park Rd. Albany, NY","latitude":42.6461,"longitude":-73.7646,"address":"Lincoln Park Rd."}},{"type":"Feature","geometry":{"type":"Point","coordinates":[-73.77100298291973,42.645557006559514]},"properties":{"OGC_FID":141,"cdtabike_i":142,"id":"p142","town":"Albany","name":"Morton Ave. at Delaware Ave. Albany, NY","latitude":42.6456,"longitude":-73.771,"address":"Morton Ave. at Delaware Ave."}},{"type":"Feature","geometry":{"type":"Point","coordinates":[-73.7535040448798,42.65142495902549]},"properties":{"OGC_FID":142,"cdtabike_i":143,"id":"p143","town":"Albany","name":"21 Lodge St. Albany, NY","latitude":42.6514,"longitude":-73.7535,"address":"21 Lodge St."}},{"type":"Feature","geometry":{"type":"Point","coordinates":[-73.77018300087514,42.65370604906711]},"properties":{"OGC_FID":143,"cdtabike_i":144,"id":"p144","town":"Albany","name":"496 Madison Ave. Albany, NY","latitude":42.6537,"longitude":-73.7702,"address":"496 Madison Ave."}},{"type":"Feature","geometry":{"type":"Point","coordinates":[-73.77328097517076,42.65462602259308]},"properties":{"OGC_FID":144,"cdtabike_i":145,"id":"p145","town":"Albany","name":"114 Dana Ave. Albany, NY","latitude":42.6546,"longitude":-73.7733,"address":"114 Dana Ave."}},{"type":"Feature","geometry":{"type":"Point","coordinates":[-73.771395948848,42.652446031930666]},"properties":{"OGC_FID":145,"cdtabike_i":146,"id":"p146","town":"Albany","name":"164 Knox St. Albany, NY","latitude":42.6524,"longitude":-73.7714,"address":"164 Knox St."}},{"type":"Feature","geometry":{"type":"Point","coordinates":[-73.77118996853731,42.65272898109924]},"properties":{"OGC_FID":146,"cdtabike_i":147,"id":"p147","town":"Albany","name":"78 Morris St. Albany, NY","latitude":42.6527,"longitude":-73.7712,"address":"78 Morris St."}},{"type":"Feature","geometry":{"type":"Point","coordinates":[-73.73973898256315,42.67332397325647]},"properties":{"OGC_FID":147,"cdtabike_i":148,"id":"p148","town":"Albany","name":"570 North Pearl St. Albany, NY","latitude":42.6733,"longitude":-73.7397,"address":"570 North Pearl St."}},{"type":"Feature","geometry":{"type":"Point","coordinates":[-73.81605800188059,42.67376699873524]},"properties":{"OGC_FID":148,"cdtabike_i":149,"id":"p149","town":"Albany","name":"1044 Western Ave. Albany, NY","latitude":42.6738,"longitude":-73.8161,"address":"1044 Western Ave."}},{"type":"Feature","geometry":{"type":"Point","coordinates":[-73.77844896291367,42.64133701115756]},"properties":{"OGC_FID":149,"cdtabike_i":150,"id":"p150","town":"Albany","name":"43 Bertha St. Albany, NY","latitude":42.6413,"longitude":-73.7784,"address":"43 Bertha St."}},{"type":"Feature","geometry":{"type":"Point","coordinates":[-73.78966604441071,42.64215298457879]},"properties":{"OGC_FID":150,"cdtabike_i":151,"id":"p151","town":"Albany","name":"108 Whitehall Rd. Albany, NY","latitude":42.6422,"longitude":-73.7897,"address":"108 Whitehall Rd."}},{"type":"Feature","geometry":{"type":"Point","coordinates":[-73.78160605175775,42.66718903577165]},"properties":{"OGC_FID":151,"cdtabike_i":152,"id":"p152","town":"Albany","name":"700 Washington Ave. Albany, NY","latitude":42.6672,"longitude":-73.7816,"address":"700 Washington Ave."}},{"type":"Feature","geometry":{"type":"Point","coordinates":[-73.7745240094745,42.66824096170194]},"properties":{"OGC_FID":152,"cdtabike_i":153,"id":"p153","town":"Albany","name":"676 Clinton Ave. Albany, NY","latitude":42.6682,"longitude":-73.7745,"address":"676 Clinton Ave."}},{"type":"Feature","geometry":{"type":"Point","coordinates":[-73.79055896302958,42.667593002379334]},"properties":{"OGC_FID":153,"cdtabike_i":154,"id":"p154","town":"Albany","name":"41 North Allen St. Albany, NY","latitude":42.6676,"longitude":-73.7906,"address":"41 North Allen St."}},{"type":"Feature","geometry":{"type":"Point","coordinates":[-73.77013703749286,42.64974599033292]},"properties":{"OGC_FID":154,"cdtabike_i":155,"id":"p155","town":"Albany","name":"45 Delaware Ave. Albany, NY","latitude":42.6497,"longitude":-73.7701,"address":"45 Delaware Ave."}},{"type":"Feature","geometry":{"type":"Point","coordinates":[-73.77667096424732,42.66494899787432]},"properties":{"OGC_FID":155,"cdtabike_i":156,"id":"p156","town":"Albany","name":"553 Washington Ave. Albany, NY","latitude":42.6649,"longitude":-73.7767,"address":"553 Washington Ave."}},{"type":"Feature","geometry":{"type":"Point","coordinates":[-73.79240704993354,42.65407003057917]},"properties":{"OGC_FID":156,"cdtabike_i":157,"id":"p157","town":"Albany","name":"369 New Scotland Ave. Albany, NY","latitude":42.6541,"longitude":-73.7924,"address":"369 New Scotland Ave."}},{"type":"Feature","geometry":{"type":"Point","coordinates":[-73.79322301837276,42.65418499583166]},"properties":{"OGC_FID":157,"cdtabike_i":158,"id":"p158","town":"Albany","name":"369 New Scotland Ave. Albany, NY","latitude":42.6542,"longitude":-73.7932,"address":"369 New Scotland Ave."}},{"type":"Feature","geometry":{"type":"Point","coordinates":[-73.76895298626044,42.65297203972146]},"properties":{"OGC_FID":158,"cdtabike_i":159,"id":"p159","town":"Albany","name":"466 Madison Ave. Albany, NY","latitude":42.653,"longitude":-73.769,"address":"466 Madison Ave."}},{"type":"Feature","geometry":{"type":"Point","coordinates":[-74.02536001750283,42.709339966922165]},"properties":{"OGC_FID":159,"cdtabike_i":160,"id":"p160","town":"Altamont","name":"Bozenkill Park, 6374 Gun Club Road Altamont, NY","latitude":42.7093,"longitude":-74.0254,"address":"Bozenkill Park, 6374 Gun Club Road"}},{"type":"Feature","geometry":{"type":"Point","coordinates":[-74.03239993729723,42.70149995209304]},"properties":{"OGC_FID":160,"cdtabike_i":161,"id":"p161","town":"Altamont","name":"Main St. and Park St. Altamont, NY","latitude":42.7015,"longitude":-74.0324,"address":"Main St. and Park St."}},{"type":"Feature","geometry":{"type":"Point","coordinates":[-73.84281001521404,42.66177000044482]},"properties":{"OGC_FID":161,"cdtabike_i":162,"id":"p162","town":"Bethlehem","name":"334 Krumkill Rd. Bethlehem, NY","latitude":42.6618,"longitude":-73.8428,"address":"334 Krumkill Rd."}},{"type":"Feature","geometry":{"type":"Point","coordinates":[-73.84128997672879,42.66102999957335]},"properties":{"OGC_FID":162,"cdtabike_i":163,"id":"p163","town":"Bethlehem","name":"334 Krumkill Rd. Bethlehem, NY","latitude":42.661,"longitude":-73.8413,"address":"334 Krumkill Rd."}},{"type":"Feature","geometry":{"type":"Point","coordinates":[-73.75940004537793,42.54510004282657]},"properties":{"OGC_FID":163,"cdtabike_i":164,"id":"p164","town":"Bethlehem","name":"Lyons Rd. Bethlehem, NY","latitude":42.5451,"longitude":-73.7594,"address":"Lyons Rd."}},{"type":"Feature","geometry":{"type":"Point","coordinates":[-73.75900002232964,42.54729997921033]},"properties":{"OGC_FID":164,"cdtabike_i":165,"id":"p165","town":"Bethlehem","name":"Lyons Rd. Bethlehem, NY","latitude":42.5473,"longitude":-73.759,"address":"Lyons Rd."}},{"type":"Feature","geometry":{"type":"Point","coordinates":[-73.82695001393189,42.6244400436155]},"properties":{"OGC_FID":165,"cdtabike_i":166,"id":"p166","town":"Bethlehem","name":"near 308 Delaware Ave. Bethlehem, NY","latitude":42.6244,"longitude":-73.8269,"address":"near 308 Delaware Ave."}},{"type":"Feature","geometry":{"type":"Point","coordinates":[-73.86130003625142,42.629999982587826]},"properties":{"OGC_FID":166,"cdtabike_i":167,"id":"p167","town":"Bethlehem","name":"New Scotland Rd. and Bridge St. Bethlehem, NY","latitude":42.63,"longitude":-73.8613,"address":"New Scotland Rd. and Bridge St."}},{"type":"Feature","geometry":{"type":"Point","coordinates":[-73.83408996442206,42.62252001135484]},"properties":{"OGC_FID":167,"cdtabike_i":168,"id":"p168","town":"Bethlehem","name":"Kenwood Ave between Delaware Ave. and Adams St. Bethlehem, NY","latitude":42.6225,"longitude":-73.8341,"address":"Kenwood Ave between Delaware Ave. and Adams St."}},{"type":"Feature","geometry":{"type":"Point","coordinates":[-73.83348996173363,42.62121998999176]},"properties":{"OGC_FID":168,"cdtabike_i":169,"id":"p169","town":"Bethlehem","name":"386 Delaware Ave. Bethlehem, NY","latitude":42.6212,"longitude":-73.8335,"address":"386 Delaware Ave."}},{"type":"Feature","geometry":{"type":"Point","coordinates":[-73.83324998306965,42.6221519991488]},"properties":{"OGC_FID":169,"cdtabike_i":170,"id":"p170","town":"Bethlehem","name":"Delaware Ave. at Kenwood Ave. Bethlehem, NY","latitude":42.6222,"longitude":-73.8333,"address":"Delaware Ave. at Kenwood Ave."}},{"type":"Feature","geometry":{"type":"Point","coordinates":[-73.83234295473343,42.62208900834486]},"properties":{"OGC_FID":170,"cdtabike_i":171,"id":"p171","town":"Bethlehem","name":"Kenwood Ave. at Delaware Ave. Bethlehem, NY","latitude":42.6221,"longitude":-73.8323,"address":"Kenwood Ave. at Delaware Ave."}},{"type":"Feature","geometry":{"type":"Point","coordinates":[-73.83210900910171,42.622406015140136]},"properties":{"OGC_FID":171,"cdtabike_i":172,"id":"p172","town":"Bethlehem","name":"Delaware Ave. at Kenwood Ave. Bethlehem, NY","latitude":42.6224,"longitude":-73.8321,"address":"Delaware Ave. at Kenwood Ave."}},{"type":"Feature","geometry":{"type":"Point","coordinates":[-73.83278497762448,42.62232496917905]},"properties":{"OGC_FID":172,"cdtabike_i":173,"id":"p173","town":"Bethlehem","name":"Delaware Ave. at Kenwood Ave. Bethlehem, NY","latitude":42.6223,"longitude":-73.8328,"address":"Delaware Ave. at Kenwood Ave."}},{"type":"Feature","geometry":{"type":"Point","coordinates":[-73.84095702598977,42.600468029032726]},"properties":{"OGC_FID":173,"cdtabike_i":174,"id":"p174","town":"Bethlehem","name":"Elm Ave. and Route 52, Bethlehem, NY","latitude":42.6005,"longitude":-73.841,"address":"Elm Ave. and Route 52"}},{"type":"Feature","geometry":{"type":"Point","coordinates":[-73.57639001849002,42.745414962198694]},"properties":{"OGC_FID":174,"cdtabike_i":175,"id":"p175","town":"Brunswick","name":"4118 State Hwy 2, Brunswick, NY","latitude":42.7454,"longitude":-73.5764,"address":"4118 State Hwy 2"}},{"type":"Feature","geometry":{"type":"Point","coordinates":[-73.76679995781636,42.874300030215515]},"properties":{"OGC_FID":175,"cdtabike_i":176,"id":"p176","town":"Clifton Park","name":"25 Fern Lane Clifton Park, NY","latitude":42.8743,"longitude":-73.7668,"address":"25 Fern Lane"}},{"type":"Feature","geometry":{"type":"Point","coordinates":[-73.78387001806318,42.85720001914693]},"properties":{"OGC_FID":176,"cdtabike_i":177,"id":"p177","town":"Clifton Park","name":"47 Clifton Country Rd. Clifton Park, NY","latitude":42.8572,"longitude":-73.7839,"address":"47 Clifton Country Rd."}},{"type":"Feature","geometry":{"type":"Point","coordinates":[-73.8095309819689,42.86444399035731]},"properties":{"OGC_FID":177,"cdtabike_i":178,"id":"p178","town":"Clifton Park","name":"School Dr. Clifton Park, NY","latitude":42.8644,"longitude":-73.8095,"address":"School Dr."}},{"type":"Feature","geometry":{"type":"Point","coordinates":[-73.80984203761396,42.86203996794451]},"properties":{"OGC_FID":178,"cdtabike_i":179,"id":"p179","town":"Clifton Park","name":"School Dr. Clifton Park, NY","latitude":42.862,"longitude":-73.8098,"address":"School Dr."}},{"type":"Feature","geometry":{"type":"Point","coordinates":[-73.79335903123655,42.86465898306874]},"properties":{"OGC_FID":179,"cdtabike_i":180,"id":"p180","town":"Clifton Park","name":"Moe Rd. at Route 146, Clifton Park, NY","latitude":42.8647,"longitude":-73.7934,"address":"Moe Rd. at Route 146"}},{"type":"Feature","geometry":{"type":"Point","coordinates":[-73.81092596724682,42.879059973359524]},"properties":{"OGC_FID":180,"cdtabike_i":181,"id":"p181","town":"Clifton Park","name":"Kinns Rd. at Nottingham Way N. Clifton Park, NY","latitude":42.8791,"longitude":-73.8109,"address":"Kinns Rd. at Nottingham Way N."}},{"type":"Feature","geometry":{"type":"Point","coordinates":[-73.82106101851083,42.91685401252937]},"properties":{"OGC_FID":181,"cdtabike_i":182,"id":"p182","town":"Clifton Park","name":"Longkill Rd. at Woodstead Rd. Clifton Park, NY","latitude":42.9169,"longitude":-73.8211,"address":"Longkill Rd. at Woodstead Rd."}},{"type":"Feature","geometry":{"type":"Point","coordinates":[-73.7957490455462,42.79293098178685]},"properties":{"OGC_FID":182,"cdtabike_i":183,"id":"p183","town":"Clifton Park","name":"Riverview Rd. at Van Vranken Rd. Clifton Park, NY","latitude":42.7929,"longitude":-73.7957,"address":"Riverview Rd. at Van Vranken Rd."}},{"type":"Feature","geometry":{"type":"Point","coordinates":[-73.85768303465564,42.82447094851834]},"properties":{"OGC_FID":183,"cdtabike_i":184,"id":"p184","town":"Clifton Park","name":"Riverview Rd. at Brian Dr. Clifton Park, NY","latitude":42.8245,"longitude":-73.8577,"address":"Riverview Rd. at Brian Dr."}},{"type":"Feature","geometry":{"type":"Point","coordinates":[-73.85077004830761,42.9035769837686]},"properties":{"OGC_FID":184,"cdtabike_i":185,"id":"p185","town":"Clifton Park","name":"Elks Trail at MacElroy Rd. Clifton Park, NY","latitude":42.9036,"longitude":-73.8508,"address":"Elks Trail at MacElroy Rd."}},{"type":"Feature","geometry":{"type":"Point","coordinates":[-73.70156704240584,42.77555402287752]},"properties":{"OGC_FID":185,"cdtabike_i":186,"id":"p186","town":"Cohoes","name":"58 Remsen St. Cohoes, NY","latitude":42.7756,"longitude":-73.7016,"address":"58 Remsen St."}},{"type":"Feature","geometry":{"type":"Point","coordinates":[-73.70119401470788,42.77339398984434]},"properties":{"OGC_FID":186,"cdtabike_i":187,"id":"p187","town":"Cohoes","name":"130 Remsen St. Cohoes, NY","latitude":42.7734,"longitude":-73.7012,"address":"130 Remsen St."}},{"type":"Feature","geometry":{"type":"Point","coordinates":[-73.7068170004736,42.78263901369289]},"properties":{"OGC_FID":187,"cdtabike_i":188,"id":"p188","town":"Cohoes","name":"Mohawk St. Cohoes, NY","latitude":42.7826,"longitude":-73.7068,"address":"Mohawk St."}},{"type":"Feature","geometry":{"type":"Point","coordinates":[-73.6878399999578,42.76857005191997]},"properties":{"OGC_FID":188,"cdtabike_i":189,"id":"p189","town":"Cohoes","name":"150 Continental Ave. Cohoes, NY","latitude":42.7686,"longitude":-73.6878,"address":"150 Continental Ave."}},{"type":"Feature","geometry":{"type":"Point","coordinates":[-73.68650203675517,42.76721603865726]},"properties":{"OGC_FID":189,"cdtabike_i":190,"id":"p190","town":"Cohoes","name":"1 Van Schaick Ave. Cohoes, NY","latitude":42.7672,"longitude":-73.6865,"address":"1 Van Schaick Ave."}},{"type":"Feature","geometry":{"type":"Point","coordinates":[-73.76766597347668,42.78308699135882]},"properties":{"OGC_FID":190,"cdtabike_i":191,"id":"p191","town":"Colonie","name":"Mohawk Hudson Bikeway Colonie, NY","latitude":42.7831,"longitude":-73.7677,"address":"Mohawk Hudson Bikeway"}},{"type":"Feature","geometry":{"type":"Point","coordinates":[-73.6913000184463,42.62540001813049]},"properties":{"OGC_FID":191,"cdtabike_i":192,"id":"p192","town":"East Greenbush","name":"962 Luther Rd. East Greenbush, NY","latitude":42.6254,"longitude":-73.6913,"address":"962 Luther Rd."}},{"type":"Feature","geometry":{"type":"Point","coordinates":[-73.93380994438208,42.89160002715871]},"properties":{"OGC_FID":192,"cdtabike_i":193,"id":"p193","town":"Glenville","name":"127 Droms Rd. Glenville, NY","latitude":42.8916,"longitude":-73.9338,"address":"127 Droms Rd."}},{"type":"Feature","geometry":{"type":"Point","coordinates":[-73.93084097242722,42.83096702665034]},"properties":{"OGC_FID":193,"cdtabike_i":194,"id":"p194","town":"Glenville","name":"Freemans Bridge Rd. Glenville, NY","latitude":42.831,"longitude":-73.9308,"address":"Freemans Bridge Rd."}},{"type":"Feature","geometry":{"type":"Point","coordinates":[-73.98816299625979,42.831588019835486]},"properties":{"OGC_FID":194,"cdtabike_i":195,"id":"p195","town":"Glenville","name":"Maalwyck Park Rd. Glenville, NY","latitude":42.8316,"longitude":-73.9882,"address":"Maalwyck Park Rd."}},{"type":"Feature","geometry":{"type":"Point","coordinates":[-73.8401600306772,42.685749950119614]},"properties":{"OGC_FID":195,"cdtabike_i":196,"id":"p196","town":"Guilderland","name":"4 Executive Park Dr. Guilderland, NY","latitude":42.6857,"longitude":-73.8402,"address":"4 Executive Park Dr."}},{"type":"Feature","geometry":{"type":"Point","coordinates":[-73.72912000518505,42.86376002238835]},"properties":{"OGC_FID":196,"cdtabike_i":197,"id":"p197","town":"Halfmoon","name":"Route 236, Town Park Halfmoon, NY","latitude":42.8638,"longitude":-73.7291,"address":"Route 236, Town Park"}},{"type":"Feature","geometry":{"type":"Point","coordinates":[-73.72939002132406,42.862689986498744]},"properties":{"OGC_FID":197,"cdtabike_i":198,"id":"p198","town":"Halfmoon","name":"Route 236, Town Park Halfmoon, NY","latitude":42.8627,"longitude":-73.7294,"address":"Route 236, Town Park"}},{"type":"Feature","geometry":{"type":"Point","coordinates":[-73.7255799669902,42.853609986120325]},"properties":{"OGC_FID":198,"cdtabike_i":199,"id":"p199","town":"Halfmoon","name":"2 Halfmoon Executive Park Dr. Halfmoon, NY","latitude":42.8536,"longitude":-73.7256,"address":"2 Halfmoon Executive Park Dr."}},{"type":"Feature","geometry":{"type":"Point","coordinates":[-73.72496997432877,42.85386000639758]},"properties":{"OGC_FID":199,"cdtabike_i":200,"id":"p200","town":"Halfmoon","name":"2 Halfmoon Executive Park Dr. Halfmoon, NY","latitude":42.8539,"longitude":-73.725,"address":"2 Halfmoon Executive Park Dr."}},{"type":"Feature","geometry":{"type":"Point","coordinates":[-73.73611005241385,42.82241002162692]},"properties":{"OGC_FID":200,"cdtabike_i":201,"id":"p201","town":"Halfmoon","name":"Canal Rd. and Vischer Ferry Rd. Crescent Park Halfmoon, NY","latitude":42.8224,"longitude":-73.7361,"address":"Canal Rd. and Vischer Ferry Rd. Crescent Park"}},{"type":"Feature","geometry":{"type":"Point","coordinates":[-73.73255999548995,42.86395004917169]},"properties":{"OGC_FID":201,"cdtabike_i":202,"id":"p202","town":"Halfmoon","name":"Route 236, Town Park Halfmoon, NY","latitude":42.864,"longitude":-73.7326,"address":"Route 236, Town Park"}},{"type":"Feature","geometry":{"type":"Point","coordinates":[-73.7286270056307,42.86313598607565]},"properties":{"OGC_FID":202,"cdtabike_i":203,"id":"p203","town":"Halfmoon","name":"Route 236 and Betts Lane Clifton Park, NY","latitude":42.8631,"longitude":-73.7286,"address":"Route 236 and Betts Lane"}},{"type":"Feature","geometry":{"type":"Point","coordinates":[-73.67643500400787,42.837127993539724]},"properties":{"OGC_FID":203,"cdtabike_i":204,"id":"p204","town":"Halfmoon","name":"Brookwood Rd. near Route 4, Halfmoon, NY","latitude":42.8371,"longitude":-73.6764,"address":"Brookwood Rd. near Route 4"}},{"type":"Feature","geometry":{"type":"Point","coordinates":[-73.68226398165869,42.86095295860762]},"properties":{"OGC_FID":204,"cdtabike_i":205,"id":"p205","town":"Halfmoon","name":"Upper Newtown Rd. near Route 4, Halfmoon, NY","latitude":42.861,"longitude":-73.6823,"address":"Upper Newtown Rd. near Route 4"}},{"type":"Feature","geometry":{"type":"Point","coordinates":[-73.72849201390835,42.86378899443408]},"properties":{"OGC_FID":205,"cdtabike_i":206,"id":"p206","town":"Halfmoon","name":"Route 236, Town Park Halfmoon, NY","latitude":42.8638,"longitude":-73.7285,"address":"Route 236, Town Park"}},{"type":"Feature","geometry":{"type":"Point","coordinates":[-73.76082105236402,42.726312949937125]},"properties":{"OGC_FID":206,"cdtabike_i":207,"id":"p207","town":"Latham","name":"594 New Loudon Rd. Latham, NY","latitude":42.7263,"longitude":-73.7608,"address":"594 New Loudon Rd."}},{"type":"Feature","geometry":{"type":"Point","coordinates":[-73.76087699296502,42.727106011128626]},"properties":{"OGC_FID":207,"cdtabike_i":208,"id":"p208","town":"Latham","name":"594 New Loudon Rd. Latham, NY","latitude":42.7271,"longitude":-73.7609,"address":"594 New Loudon Rd."}},{"type":"Feature","geometry":{"type":"Point","coordinates":[-73.76102202502227,42.7283109795412]},"properties":{"OGC_FID":208,"cdtabike_i":209,"id":"p209","town":"Latham","name":"594 New Loudon Rd. Latham, NY","latitude":42.7283,"longitude":-73.761,"address":"594 New Loudon Rd."}},{"type":"Feature","geometry":{"type":"Point","coordinates":[-73.77328002169182,42.970159967069954]},"properties":{"OGC_FID":209,"cdtabike_i":210,"id":"p210","town":"Malta","name":"10 Hermes Rd Malta, NY","latitude":42.9702,"longitude":-73.7733,"address":"10 Hermes Rd."}},{"type":"Feature","geometry":{"type":"Point","coordinates":[-73.76700002463481,42.96669996742553]},"properties":{"OGC_FID":210,"cdtabike_i":211,"id":"p211","town":"Malta","name":"Hermes Rd trailhead entrance Malta, NY","latitude":42.9667,"longitude":-73.767,"address":"Hermes Rd trailhead entrance"}},{"type":"Feature","geometry":{"type":"Point","coordinates":[-73.73300005566364,42.686499991136586]},"properties":{"OGC_FID":211,"cdtabike_i":212,"id":"p212","town":"Menands","name":"19 Wards Lane Menands, NY","latitude":42.6865,"longitude":-73.733,"address":"19 Wards Lane"}},{"type":"Feature","geometry":{"type":"Point","coordinates":[-73.88249999952836,42.581999982837125]},"properties":{"OGC_FID":212,"cdtabike_i":213,"id":"p213","town":"New Scotland","name":"63 Mathias Pl. New Scotland, NY","latitude":42.582,"longitude":-73.8825,"address":"63 Mathias Pl."}},{"type":"Feature","geometry":{"type":"Point","coordinates":[-73.92973999685303,42.638280046150186]},"properties":{"OGC_FID":213,"cdtabike_i":214,"id":"p214","town":"New Scotland","name":"148 Swift Rd. New Scotland, NY","latitude":42.6383,"longitude":-73.9297,"address":"148 Swift Rd."}},{"type":"Feature","geometry":{"type":"Point","coordinates":[-73.8855999676156,42.81900003151429]},"properties":{"OGC_FID":214,"cdtabike_i":215,"id":"p215","town":"Niskayuna","name":"1 Niskayuna Cir. Niskayuna, NY","latitude":42.819,"longitude":-73.8856,"address":"1 Niskayuna Cir."}},{"type":"Feature","geometry":{"type":"Point","coordinates":[-73.90529997308042,42.8415000514541]},"properties":{"OGC_FID":215,"cdtabike_i":216,"id":"p216","town":"Niskayuna","name":"2682 Aqueduct Rd. Niskayuna, NY","latitude":42.8415,"longitude":-73.9053,"address":"2682 Aqueduct Rd."}},{"type":"Feature","geometry":{"type":"Point","coordinates":[-73.89340003243518,42.845499975763424]},"properties":{"OGC_FID":216,"cdtabike_i":217,"id":"p217","town":"Niskayuna","name":"2773 Balltown Rd. Niskayuna, NY","latitude":42.8455,"longitude":-73.8934,"address":"2773 Balltown Rd."}},{"type":"Feature","geometry":{"type":"Point","coordinates":[-73.97455005765494,42.78559999940699]},"properties":{"OGC_FID":217,"cdtabike_i":218,"id":"p218","town":"Rotterdam","name":"1100 Sunrise Blvd. Rotterdam, NY","latitude":42.7856,"longitude":-73.9745,"address":"1100 Sunrise Blvd."}},{"type":"Feature","geometry":{"type":"Point","coordinates":[-74.01379998821318,42.84710002859816]},"properties":{"OGC_FID":218,"cdtabike_i":219,"id":"p219","town":"Rotterdam","name":"River Rd. Route 5S Rotterdam, NY","latitude":42.8471,"longitude":-74.0138,"address":"River Rd. Route 5S"}},{"type":"Feature","geometry":{"type":"Point","coordinates":[-73.93360002717793,42.775800021778444]},"properties":{"OGC_FID":219,"cdtabike_i":220,"id":"p220","town":"Rotterdam","name":"2639 Hamburg St. Rotterdam, NY","latitude":42.7758,"longitude":-73.9336,"address":"2639 Hamburg St."}},{"type":"Feature","geometry":{"type":"Point","coordinates":[-73.94144602827987,42.764889041168715]},"properties":{"OGC_FID":220,"cdtabike_i":221,"id":"p221","town":"Rotterdam","name":"Fayette Dr. Rotterdam, NY","latitude":42.7649,"longitude":-73.9414,"address":"Fayette Dr."}},{"type":"Feature","geometry":{"type":"Point","coordinates":[-73.66107804424213,42.74491201759419]},"properties":{"OGC_FID":221,"cdtabike_i":222,"id":"p222","town":"Sand Lake","name":"8428 Miller Hill Rd. Sand Lake, NY","latitude":42.7449,"longitude":-73.6611,"address":"8428 Miller Hill Rd."}},{"type":"Feature","geometry":{"type":"Point","coordinates":[-73.79861994810655,43.068760002872764]},"properties":{"OGC_FID":222,"cdtabike_i":223,"id":"p223","town":"Saratoga Springs","name":"40 New St Saratoga Springs, NY","latitude":43.0688,"longitude":-73.7986,"address":"40 New St"}},{"type":"Feature","geometry":{"type":"Point","coordinates":[-73.78580002709323,43.096800011369055]},"properties":{"OGC_FID":223,"cdtabike_i":224,"id":"p224","town":"Saratoga Springs","name":"Case Center Drive Saratoga Springs, NY","latitude":43.0968,"longitude":-73.7858,"address":"Case Center Drive"}},{"type":"Feature","geometry":{"type":"Point","coordinates":[-73.78506995911829,43.091420011643045]},"properties":{"OGC_FID":224,"cdtabike_i":225,"id":"p225","town":"Saratoga Springs","name":"5 Clement Ave. Saratoga Springs, NY","latitude":43.0914,"longitude":-73.7851,"address":"5 Clement Ave."}},{"type":"Feature","geometry":{"type":"Point","coordinates":[-73.79472001932318,43.081030002266374]},"properties":{"OGC_FID":225,"cdtabike_i":226,"id":"p226","town":"Saratoga Springs","name":"166 Division St Saratoga Springs, NY","latitude":43.081,"longitude":-73.7947,"address":"166 Division St"}},{"type":"Feature","geometry":{"type":"Point","coordinates":[-73.82027001347359,43.07881997247493]},"properties":{"OGC_FID":226,"cdtabike_i":227,"id":"p227","town":"Saratoga Springs","name":"19 JFK Drive Saratoga Springs, NY","latitude":43.0788,"longitude":-73.8203,"address":"19 JFK Drive"}},{"type":"Feature","geometry":{"type":"Point","coordinates":[-73.82367001692784,43.06008998601156]},"properties":{"OGC_FID":227,"cdtabike_i":228,"id":"p228","town":"Saratoga Springs","name":"Adams Rd and Cady Hill Blvd Saratoga Springs, NY","latitude":43.0601,"longitude":-73.8237,"address":"Adams Rd and Cady Hill Blvd"}},{"type":"Feature","geometry":{"type":"Point","coordinates":[-73.78449996805958,43.08450001414657]},"properties":{"OGC_FID":228,"cdtabike_i":229,"id":"p229","town":"Saratoga Springs","name":"509 Broadway Saratoga Springs, NY","latitude":43.0845,"longitude":-73.7845,"address":"509 Broadway"}},{"type":"Feature","geometry":{"type":"Point","coordinates":[-73.79491001484016,43.08218996852982]},"properties":{"OGC_FID":229,"cdtabike_i":230,"id":"p230","town":"Saratoga Springs","name":"166 Division St Saratoga Springs, NY","latitude":43.0822,"longitude":-73.7949,"address":"166 Division St"}},{"type":"Feature","geometry":{"type":"Point","coordinates":[-73.7899100473848,43.0647600297033]},"properties":{"OGC_FID":230,"cdtabike_i":231,"id":"p231","town":"Saratoga Springs","name":"Washington Baths Saratoga Springs, NY","latitude":43.0648,"longitude":-73.7899,"address":"Washington Baths"}},{"type":"Feature","geometry":{"type":"Point","coordinates":[-73.80794000016958,43.054300031448115]},"properties":{"OGC_FID":231,"cdtabike_i":232,"id":"p232","town":"Saratoga Springs","name":"SPAC Saratoga Springs, NY","latitude":43.0543,"longitude":-73.8079,"address":"SPAC"}},{"type":"Feature","geometry":{"type":"Point","coordinates":[-73.82570000086562,43.060160026009775]},"properties":{"OGC_FID":232,"cdtabike_i":233,"id":"p233","town":"Saratoga Springs","name":"Adams Rd and Cady Hill Blvd Saratoga Springs, NY","latitude":43.0602,"longitude":-73.8257,"address":"Adams Rd and Cady Hill Blvd"}},{"type":"Feature","geometry":{"type":"Point","coordinates":[-73.81009003164839,43.08289001839279]},"properties":{"OGC_FID":233,"cdtabike_i":234,"id":"p234","town":"Saratoga Springs","name":"26 Station Ln. Saratoga Springs, NY","latitude":43.0829,"longitude":-73.8101,"address":"26 Station Ln."}},{"type":"Feature","geometry":{"type":"Point","coordinates":[-73.78117302307795,43.077880983402764]},"properties":{"OGC_FID":234,"cdtabike_i":235,"id":"p235","town":"Saratoga Springs","name":"Union St. and Regent Ave. Saratoga Springs, NY","latitude":43.0779,"longitude":-73.7812,"address":"Union St. and Regent Ave."}},{"type":"Feature","geometry":{"type":"Point","coordinates":[-73.80547595182584,43.078145046323584]},"properties":{"OGC_FID":235,"cdtabike_i":236,"id":"p236","town":"Saratoga Springs","name":"111 West Ave. Saratoga Springs, NY","latitude":43.0781,"longitude":-73.8055,"address":"111 West Ave."}},{"type":"Feature","geometry":{"type":"Point","coordinates":[-73.78299603934283,43.07726300149927]},"properties":{"OGC_FID":236,"cdtabike_i":237,"id":"p237","town":"Saratoga Springs","name":"Circular St. at Union Ave. Saratoga Springs, NY","latitude":43.0773,"longitude":-73.783,"address":"Circular St. at Union Ave."}},{"type":"Feature","geometry":{"type":"Point","coordinates":[-73.9393499730157,42.81001003297291]},"properties":{"OGC_FID":237,"cdtabike_i":238,"id":"p238","town":"Schenectady","name":"620 State St. Schenectady, NY","latitude":42.81,"longitude":-73.9394,"address":"620 State St."}},{"type":"Feature","geometry":{"type":"Point","coordinates":[-73.9056200304766,42.827889955690445]},"properties":{"OGC_FID":238,"cdtabike_i":239,"id":"p239","town":"Schenectady","name":"2216 Rosa Rd. Schenectady, NY","latitude":42.8279,"longitude":-73.9056,"address":"2216 Rosa Rd."}},{"type":"Feature","geometry":{"type":"Point","coordinates":[-73.94950000720536,42.81469995568335]},"properties":{"OGC_FID":239,"cdtabike_i":240,"id":"p240","town":"Schenectady","name":"SCCC Elston Hall Schenectady, NY","latitude":42.8147,"longitude":-73.9495,"address":"SCCC Elston Hall"}},{"type":"Feature","geometry":{"type":"Point","coordinates":[-73.9505000481079,42.81469998449911]},"properties":{"OGC_FID":240,"cdtabike_i":241,"id":"p241","town":"Schenectady","name":"SCCC Elston Hall Schenectady, NY","latitude":42.8147,"longitude":-73.9505,"address":"SCCC Elston Hall"}},{"type":"Feature","geometry":{"type":"Point","coordinates":[-73.95100999155983,42.81459999649478]},"properties":{"OGC_FID":241,"cdtabike_i":242,"id":"p242","town":"Schenectady","name":"SCCC Begley Building Schenectady, NY","latitude":42.8146,"longitude":-73.951,"address":"SCCC Begley Building"}},{"type":"Feature","geometry":{"type":"Point","coordinates":[-73.95145997085052,42.814709992691384]},"properties":{"OGC_FID":242,"cdtabike_i":243,"id":"p243","town":"Schenectady","name":"SCCC Begley Building Schenectady, NY","latitude":42.8147,"longitude":-73.9515,"address":"SCCC Begley Building"}},{"type":"Feature","geometry":{"type":"Point","coordinates":[-73.9529999725196,42.814899973699]},"properties":{"OGC_FID":243,"cdtabike_i":244,"id":"p244","town":"Schenectady","name":"SCCC Gateway Building Schenectady, NY","latitude":42.8149,"longitude":-73.953,"address":"SCCC Gateway Building"}},{"type":"Feature","geometry":{"type":"Point","coordinates":[-73.95064003124008,42.81428002641588]},"properties":{"OGC_FID":244,"cdtabike_i":245,"id":"p245","town":"Schenectady","name":"SCCC quad Schenectady, NY","latitude":42.8143,"longitude":-73.9506,"address":"SCCC quad"}},{"type":"Feature","geometry":{"type":"Point","coordinates":[-73.91001401380883,42.798701958654824]},"properties":{"OGC_FID":245,"cdtabike_i":246,"id":"p246","town":"Schenectady","name":"Central Park Schenectady, NY","latitude":42.7987,"longitude":-73.91,"address":"Central Park"}},{"type":"Feature","geometry":{"type":"Point","coordinates":[-73.9105200113708,42.79830797146217]},"properties":{"OGC_FID":246,"cdtabike_i":247,"id":"p247","town":"Schenectady","name":"Central Park Schenectady, NY","latitude":42.7983,"longitude":-73.9105,"address":"Central Park"}},{"type":"Feature","geometry":{"type":"Point","coordinates":[-73.95094003525644,42.80407002306123]},"properties":{"OGC_FID":247,"cdtabike_i":248,"id":"p248","town":"Schenectady","name":"797 Broadway Schenectady, NY","latitude":42.8041,"longitude":-73.9509,"address":"797 Broadway"}},{"type":"Feature","geometry":{"type":"Point","coordinates":[-73.90494999441792,42.78003003538701]},"properties":{"OGC_FID":248,"cdtabike_i":249,"id":"p249","town":"Schenectady","name":"2 Sanford St. Schenectady, NY","latitude":42.78,"longitude":-73.9049,"address":"2 Sanford St."}},{"type":"Feature","geometry":{"type":"Point","coordinates":[-73.93836995491105,42.81446998759922]},"properties":{"OGC_FID":249,"cdtabike_i":250,"id":"p250","town":"Schenectady","name":"99 Clinton St. Schenectady, NY","latitude":42.8145,"longitude":-73.9384,"address":"99 Clinton St."}},{"type":"Feature","geometry":{"type":"Point","coordinates":[-73.93790001946398,42.81171000331234]},"properties":{"OGC_FID":250,"cdtabike_i":251,"id":"p251","town":"Schenectady","name":"603 State St. Schenectady, NY","latitude":42.8117,"longitude":-73.9379,"address":"603 State St."}},{"type":"Feature","geometry":{"type":"Point","coordinates":[-73.93856003657378,42.81199000256377]},"properties":{"OGC_FID":251,"cdtabike_i":252,"id":"p252","town":"Schenectady","name":"Chapel St. at Lafayette St. Schenectady, NY","latitude":42.812,"longitude":-73.9386,"address":"Chapel St. at Lafayette St."}},{"type":"Feature","geometry":{"type":"Point","coordinates":[-73.87874797039207,42.79270698655513]},"properties":{"OGC_FID":252,"cdtabike_i":253,"id":"p253","town":"Schenectady","name":"2210 Troy-Schenectady Rd. Schenectady, NY","latitude":42.7927,"longitude":-73.8787,"address":"2210 Troy-Schenectady Rd."}},{"type":"Feature","geometry":{"type":"Point","coordinates":[-73.9500099703289,42.815619976624816]},"properties":{"OGC_FID":253,"cdtabike_i":254,"id":"p254","town":"Schenectady","name":"SCCC Science & Technology Building Schenectady, NY","latitude":42.8156,"longitude":-73.95,"address":"SCCC Science & Technology Building"}},{"type":"Feature","geometry":{"type":"Point","coordinates":[-73.91640005676182,42.81966004166098]},"properties":{"OGC_FID":254,"cdtabike_i":255,"id":"p255","town":"Schenectady","name":"1101 Nott St. Ellis Hospital Schenectady, NY","latitude":42.8197,"longitude":-73.9164,"address":"1101 Nott St."}},{"type":"Feature","geometry":{"type":"Point","coordinates":[-73.91638995977367,42.80446998546819]},"properties":{"OGC_FID":255,"cdtabike_i":256,"id":"p256","town":"Schenectady","name":"600 McClellan St. Ellis Hospital Schenectady, NY","latitude":42.8045,"longitude":-73.9164,"address":"600 McClellan St."}},{"type":"Feature","geometry":{"type":"Point","coordinates":[-73.91630002797605,42.803920037754416]},"properties":{"OGC_FID":256,"cdtabike_i":257,"id":"p257","town":"Schenectady","name":"600 McClellan St. Ellis Hospital Schenectady, NY","latitude":42.8039,"longitude":-73.9163,"address":"600 McClellan St."}},{"type":"Feature","geometry":{"type":"Point","coordinates":[-73.91584998584642,42.803799969631264]},"properties":{"OGC_FID":257,"cdtabike_i":258,"id":"p258","town":"Schenectady","name":"600 McClellan St. Ellis Hospital Schenectady, NY","latitude":42.8038,"longitude":-73.9159,"address":"600 McClellan St."}},{"type":"Feature","geometry":{"type":"Point","coordinates":[-73.915690018341,42.80523998163653]},"properties":{"OGC_FID":258,"cdtabike_i":259,"id":"p259","town":"Schenectady","name":"600 McClellan St. Ellis Hospital Schenectady, NY","latitude":42.8052,"longitude":-73.9157,"address":"600 McClellan St."}},{"type":"Feature","geometry":{"type":"Point","coordinates":[-73.89650897606523,42.80155601834726]},"properties":{"OGC_FID":259,"cdtabike_i":260,"id":"p260","town":"Schenectady","name":"1803 Union St. Schenectady, NY","latitude":42.8016,"longitude":-73.8965,"address":"1803 Union St."}},{"type":"Feature","geometry":{"type":"Point","coordinates":[-73.57779003376238,43.11314003412873]},"properties":{"OGC_FID":260,"cdtabike_i":261,"id":"p261","town":"Schuylerville","name":"County Rd. 42 Peebles Island Schuylerville, NY","latitude":43.1131,"longitude":-73.5778,"address":"County Rd. 42 Peebles Island"}},{"type":"Feature","geometry":{"type":"Point","coordinates":[-73.5778800020842,43.114020000093994]},"properties":{"OGC_FID":261,"cdtabike_i":262,"id":"p262","town":"Schuylerville","name":"County Rd. 42 Peebles Island Schuylerville, NY","latitude":43.114,"longitude":-73.5779,"address":"County Rd. 42 Peebles Island"}},{"type":"Feature","geometry":{"type":"Point","coordinates":[-73.95960001456926,42.824299996173984]},"properties":{"OGC_FID":262,"cdtabike_i":263,"id":"p263","town":"Scotia","name":"14 Mohawk Ave. Scotia, NY","latitude":42.8243,"longitude":-73.9596,"address":"14 Mohawk Ave."}},{"type":"Feature","geometry":{"type":"Point","coordinates":[-73.95620001190781,42.82500003077026]},"properties":{"OGC_FID":263,"cdtabike_i":264,"id":"p264","town":"Scotia","name":"Mohawk Ave and Schonowee Ave Scotia, NY","latitude":42.825,"longitude":-73.9562,"address":"Mohawk Ave and Schonowee Ave"}},{"type":"Feature","geometry":{"type":"Point","coordinates":[-73.95660998721799,42.82349002836109]},"properties":{"OGC_FID":264,"cdtabike_i":265,"id":"p265","town":"Scotia","name":"Mohawk Ave and Schonowee Ave Scotia, NY","latitude":42.8235,"longitude":-73.9566,"address":"Mohawk Ave and Schonowee Ave"}},{"type":"Feature","geometry":{"type":"Point","coordinates":[-73.95678995202994,42.823870021958825]},"properties":{"OGC_FID":265,"cdtabike_i":266,"id":"p266","town":"Scotia","name":"Rotary Row Scotia, NY","latitude":42.8239,"longitude":-73.9568,"address":"Rotary Row"}},{"type":"Feature","geometry":{"type":"Point","coordinates":[-73.95725995557818,42.824410021509955]},"properties":{"OGC_FID":266,"cdtabike_i":267,"id":"p267","town":"Scotia","name":"Rotary Row Scotia, NY","latitude":42.8244,"longitude":-73.9573,"address":"Rotary Row"}},{"type":"Feature","geometry":{"type":"Point","coordinates":[-73.95574998459799,42.82223003835066]},"properties":{"OGC_FID":267,"cdtabike_i":268,"id":"p268","town":"Scotia","name":"5 Schonowee Ave. Scotia, NY","latitude":42.8222,"longitude":-73.9557,"address":"5 Schonowee Ave."}},{"type":"Feature","geometry":{"type":"Point","coordinates":[-73.3809819667194,42.55059203053806]},"properties":{"OGC_FID":268,"cdtabike_i":269,"id":"p269","town":"Stephentown","name":"472 State Route 43 Stephentown, NY","latitude":42.5506,"longitude":-73.381,"address":"472 State Route 43"}},{"type":"Feature","geometry":{"type":"Point","coordinates":[-73.68647001577149,42.73051001771431]},"properties":{"OGC_FID":269,"cdtabike_i":270,"id":"p270","town":"Troy","name":"1776 Sixth Ave. Troy, NY","latitude":42.7305,"longitude":-73.6865,"address":"1776 Sixth Ave."}},{"type":"Feature","geometry":{"type":"Point","coordinates":[-73.68988000159666,42.73187994910264]},"properties":{"OGC_FID":270,"cdtabike_i":271,"id":"p271","town":"Troy","name":"27 3rd St. Troy, NY","latitude":42.7319,"longitude":-73.6899,"address":"27 3rd St."}},{"type":"Feature","geometry":{"type":"Point","coordinates":[-73.69023002277534,42.7331399631677]},"properties":{"OGC_FID":271,"cdtabike_i":272,"id":"p272","town":"Troy","name":"Front St. at River St. Troy, NY","latitude":42.7331,"longitude":-73.6902,"address":"Front St. at River St."}},{"type":"Feature","geometry":{"type":"Point","coordinates":[-73.69539997550463,42.72509997192299]},"properties":{"OGC_FID":272,"cdtabike_i":273,"id":"p273","town":"Troy","name":"40 River St Troy, NY","latitude":42.7251,"longitude":-73.6954,"address":"40 River St"}},{"type":"Feature","geometry":{"type":"Point","coordinates":[-73.68130001270332,42.75340000212452]},"properties":{"OGC_FID":273,"cdtabike_i":274,"id":"p274","town":"Troy","name":"33661 6th Ave. Troy, NY","latitude":42.7534,"longitude":-73.6813,"address":"33661 6th Ave."}},{"type":"Feature","geometry":{"type":"Point","coordinates":[-73.69049997725597,42.730500046647066]},"properties":{"OGC_FID":274,"cdtabike_i":275,"id":"p275","town":"Troy","name":"51 3rd St. (Route 4 South) Troy, NY","latitude":42.7305,"longitude":-73.6905,"address":"51 3rd St. (Route 4 South)"}},{"type":"Feature","geometry":{"type":"Point","coordinates":[-73.69049002049258,42.72880997601858]},"properties":{"OGC_FID":275,"cdtabike_i":276,"id":"p276","town":"Troy","name":"77-81 Congress St. Troy, NY","latitude":42.7288,"longitude":-73.6905,"address":"77-81 Congress St."}},{"type":"Feature","geometry":{"type":"Point","coordinates":[-73.69078001645997,42.733449975681445]},"properties":{"OGC_FID":276,"cdtabike_i":277,"id":"p277","town":"Troy","name":"River St. and Front St. Troy, NY","latitude":42.7334,"longitude":-73.6908,"address":"River St. and Front St."}},{"type":"Feature","geometry":{"type":"Point","coordinates":[-73.68983001365275,42.724489972408314]},"properties":{"OGC_FID":277,"cdtabike_i":278,"id":"p278","town":"Troy","name":"32 Hill St. Troy, NY","latitude":42.7245,"longitude":-73.6898,"address":"32 Hill St."}},{"type":"Feature","geometry":{"type":"Point","coordinates":[-73.68979000196595,42.73274898109657]},"properties":{"OGC_FID":278,"cdtabike_i":279,"id":"p279","town":"Troy","name":"3rd St. and Fulton St. Troy, NY","latitude":42.7327,"longitude":-73.6898,"address":"3rd St. and Fulton St."}},{"type":"Feature","geometry":{"type":"Point","coordinates":[-73.6859750205207,42.72916299055128]},"properties":{"OGC_FID":279,"cdtabike_i":280,"id":"p280","town":"Troy","name":"1600 7th Ave. Troy, NY","latitude":42.7292,"longitude":-73.686,"address":"1600 7th Ave."}},{"type":"Feature","geometry":{"type":"Point","coordinates":[-73.68637605699914,42.72852900309315]},"properties":{"OGC_FID":280,"cdtabike_i":281,"id":"p281","town":"Troy","name":"1600 7th Ave. Troy, NY","latitude":42.7285,"longitude":-73.6864,"address":"1600 7th Ave."}},{"type":"Feature","geometry":{"type":"Point","coordinates":[-73.6687999885233,42.746408995289734]},"properties":{"OGC_FID":281,"cdtabike_i":282,"id":"p282","town":"Troy","name":"Frear Park Rd. Troy, NY","latitude":42.7464,"longitude":-73.6688,"address":"Frear Park Rd."}},{"type":"Feature","geometry":{"type":"Point","coordinates":[-73.66107804424213,42.74491201759419]},"properties":{"OGC_FID":282,"cdtabike_i":283,"id":"p283","town":"Troy","name":"N. Lake Ave. Troy, NY","latitude":42.7449,"longitude":-73.6611,"address":"N. Lake Ave."}},{"type":"Feature","geometry":{"type":"Point","coordinates":[-73.69217806058097,42.72793298996937]},"properties":{"OGC_FID":283,"cdtabike_i":284,"id":"p284","town":"Troy","name":"100 2nd St. Troy, NY","latitude":42.7279,"longitude":-73.6922,"address":"100 2nd St."}},{"type":"Feature","geometry":{"type":"Point","coordinates":[-73.6756929711682,42.77307804114291]},"properties":{"OGC_FID":284,"cdtabike_i":285,"id":"p285","town":"Troy","name":"27 114th St. Troy, NY","latitude":42.7731,"longitude":-73.6757,"address":"27 114th St."}},{"type":"Feature","geometry":{"type":"Point","coordinates":[-73.67079295619126,42.74463200093603]},"properties":{"OGC_FID":285,"cdtabike_i":286,"id":"p286","town":"Troy","name":"Lavin Ct. Troy, NY","latitude":42.7446,"longitude":-73.6708,"address":"Lavin Ct."}},{"type":"Feature","geometry":{"type":"Point","coordinates":[-73.68771302850891,42.731113968067376]},"properties":{"OGC_FID":286,"cdtabike_i":287,"id":"p287","town":"Troy","name":"500 Broadway Troy, NY","latitude":42.7311,"longitude":-73.6877,"address":"500 Broadway"}},{"type":"Feature","geometry":{"type":"Point","coordinates":[-73.68785998944922,42.735066976258224]},"properties":{"OGC_FID":287,"cdtabike_i":288,"id":"p288","town":"Troy","name":"River St. at Federal St. Troy, NY","latitude":42.7351,"longitude":-73.6879,"address":"River St. at Federal St."}},{"type":"Feature","geometry":{"type":"Point","coordinates":[-73.67778997914311,42.72988503671638]},"properties":{"OGC_FID":288,"cdtabike_i":289,"id":"p289","town":"Troy","name":"15th St. Troy, NY","latitude":42.7299,"longitude":-73.6778,"address":"15th St."}},{"type":"Feature","geometry":{"type":"Point","coordinates":[-73.67766299010849,42.730461965024844]},"properties":{"OGC_FID":289,"cdtabike_i":290,"id":"p290","town":"Troy","name":"15th St. Troy, NY","latitude":42.7305,"longitude":-73.6777,"address":"15th St."}},{"type":"Feature","geometry":{"type":"Point","coordinates":[-73.67822195648759,42.73045796457908]},"properties":{"OGC_FID":290,"cdtabike_i":291,"id":"p291","town":"Troy","name":"Sage Ave. Troy, NY","latitude":42.7305,"longitude":-73.6782,"address":"Sage Ave."}},{"type":"Feature","geometry":{"type":"Point","coordinates":[-73.68300198319801,42.73041500082892]},"properties":{"OGC_FID":291,"cdtabike_i":292,"id":"p292","town":"Troy","name":"8th St. Troy, NY","latitude":42.7304,"longitude":-73.683,"address":"8th St."}},{"type":"Feature","geometry":{"type":"Point","coordinates":[-73.69361798748977,42.730977965179946]},"properties":{"OGC_FID":292,"cdtabike_i":293,"id":"p293","town":"Troy","name":"195 River St. Troy, NY","latitude":42.731,"longitude":-73.6936,"address":"195 River St."}},{"type":"Feature","geometry":{"type":"Point","coordinates":[-73.69206795045613,42.73172804581291]},"properties":{"OGC_FID":293,"cdtabike_i":294,"id":"p294","town":"Troy","name":"251 River St. Troy, NY","latitude":42.7317,"longitude":-73.6921,"address":"251 River St."}},{"type":"Feature","geometry":{"type":"Point","coordinates":[-73.67707695415882,42.760808052408514]},"properties":{"OGC_FID":294,"cdtabike_i":295,"id":"p295","town":"Troy","name":"Knickerbacker Ln. Troy, NY","latitude":42.7608,"longitude":-73.6771,"address":"Knickerbacker Ln."}},{"type":"Feature","geometry":{"type":"Point","coordinates":[-73.67559598288273,42.75928000898658]},"properties":{"OGC_FID":295,"cdtabike_i":296,"id":"p296","town":"Troy","name":"Peter Guennette Ln. Troy, NY","latitude":42.7593,"longitude":-73.6756,"address":"Peter Guennette Ln."}},{"type":"Feature","geometry":{"type":"Point","coordinates":[-73.67662601247444,42.76222898785052]},"properties":{"OGC_FID":296,"cdtabike_i":297,"id":"p297","town":"Troy","name":"Knickerbacker Ln. Troy, NY","latitude":42.7622,"longitude":-73.6766,"address":"Knickerbacker Ln."}},{"type":"Feature","geometry":{"type":"Point","coordinates":[-73.674302989644,42.76279100430693]},"properties":{"OGC_FID":297,"cdtabike_i":298,"id":"p298","town":"Troy","name":"107th St. Troy, NY","latitude":42.7628,"longitude":-73.6743,"address":"107th St."}},{"type":"Feature","geometry":{"type":"Point","coordinates":[-74.01848900959045,42.65767597525628]},"properties":{"OGC_FID":298,"cdtabike_i":299,"id":"p299","town":"Vorheesville","name":"1 Hailes Cave Rd. Vorheesville, NY","latitude":42.6577,"longitude":-74.0185,"address":"1 Hailes Cave Rd."}},{"type":"Feature","geometry":{"type":"Point","coordinates":[-73.69510002661627,42.78110001763623]},"properties":{"OGC_FID":299,"cdtabike_i":300,"id":"p300","town":"Waterford","name":"2 Museum Lane Waterford, NY","latitude":42.7811,"longitude":-73.6951,"address":"2 Museum Lane"}},{"type":"Feature","geometry":{"type":"Point","coordinates":[-73.67935998933613,42.78733004880852]},"properties":{"OGC_FID":300,"cdtabike_i":301,"id":"p301","town":"Waterford","name":"1 Tugboat Alley Waterford, NY","latitude":42.7873,"longitude":-73.6794,"address":"1 Tugboat Alley"}},{"type":"Feature","geometry":{"type":"Point","coordinates":[-73.69859997778016,42.729700047946174]},"properties":{"OGC_FID":301,"cdtabike_i":302,"id":"p302","town":"Watervliet","name":"23rd St and Lower Hudson Ave Watervliet, NY","latitude":42.7297,"longitude":-73.6986,"address":"Hudson Shores Park, off of 23rd St\/Lower Hudson Ave"}},{"type":"Feature","geometry":{"type":"Point","coordinates":[-73.70246996329811,42.730450035097554]},"properties":{"OGC_FID":302,"cdtabike_i":303,"id":"p303","town":"Watervliet","name":"19th St. at 3rd Ave. Watervliet, NY","latitude":42.7304,"longitude":-73.7025,"address":"19th St. at 3rd Ave."}},{"type":"Feature","geometry":{"type":"Point","coordinates":[-73.70019995523653,42.72639996863099]},"properties":{"OGC_FID":303,"cdtabike_i":304,"id":"p304","town":"Watervliet","name":"1541 Broadway Watervliet, NY","latitude":42.7264,"longitude":-73.7002,"address":"1541 Broadway"}},{"type":"Feature","geometry":{"type":"Point","coordinates":[-73.70162000834473,42.728369946581324]},"properties":{"OGC_FID":304,"cdtabike_i":305,"id":"p305","town":"Watervliet","name":"2nd Ave at 13th St. Watervliet, NY","latitude":42.7284,"longitude":-73.7016,"address":"2nd Ave at 13th St."}},{"type":"Feature","geometry":{"type":"Point","coordinates":[-73.70030099292971,42.72566200504576]},"properties":{"OGC_FID":305,"cdtabike_i":306,"id":"p306","town":"Watervliet","name":"2 15th St. Watervliet, NY","latitude":42.7257,"longitude":-73.7003,"address":"2 15th St."}},{"type":"Feature","geometry":{"type":"Point","coordinates":[-73.70848598694339,42.71192700663846]},"properties":{"OGC_FID":306,"cdtabike_i":307,"id":"p307","town":"Watervliet","name":"501 4th Ave. Watervliet, NY","latitude":42.7119,"longitude":-73.7085,"address":"501 4th Ave."}},{"type":"Feature","geometry":{"type":"Point","coordinates":[-73.70501101123266,42.71518298436916]},"properties":{"OGC_FID":307,"cdtabike_i":308,"id":"p308","town":"Watervliet","name":"1st Ave at 3rd Ave. Watervliet, NY","latitude":42.7152,"longitude":-73.705,"address":"1st Ave at 3rd Ave."}},{"type":"Feature","geometry":{"type":"Point","coordinates":[-73.72074301159837,43.12139299929481]},"properties":{"OGC_FID":308,"cdtabike_i":309,"id":"p309","town":"Wilton","name":"4227 Route 50, Saratoga Springs NY 12866","latitude":43.1214,"longitude":-73.7207,"address":"4227 Route 50"}},{"type":"Feature","geometry":{"type":"Point","coordinates":[-73.80582704851786,42.72084296332526]},"properties":{"OGC_FID":309,"cdtabike_i":310,"id":"p310","town":"Colonie","name":"3 Cerone Commercial Dr. Albany NY 12205","latitude":42.7208,"longitude":-73.8058,"address":"3 Cerone Commercial Dr."}},{"type":"Feature","geometry":{"type":"Point","coordinates":[-73.68457805212181,42.903536987091]},"properties":{"OGC_FID":310,"cdtabike_i":311,"id":"p311","town":"Mechanicville","name":"Terminal St. Mechanicville NY 12118","latitude":42.9035,"longitude":-73.6846,"address":"Terminal St."}},{"type":"Feature","geometry":{"type":"Point","coordinates":[-73.69295100993972,42.90720899005256]},"properties":{"OGC_FID":311,"cdtabike_i":312,"id":"p312","town":"Mechanicville","name":"Depot Sq. Mechanicville NY 12118","latitude":42.9072,"longitude":-73.693,"address":"Depot Square"}},{"type":"Feature","geometry":{"type":"Point","coordinates":[-73.69295100993972,42.90720899005256]},"properties":{"OGC_FID":312,"cdtabike_i":313,"id":"p313","town":"Saratoga Springs","name":"297 Broadway, Saratoga Springs NY 12866","latitude":42.9072,"longitude":-73.693,"address":"297 Broadway"}},{"type":"Feature","geometry":{"type":"Point","coordinates":[-73.69572898851258,42.75320199277717]},"properties":{"OGC_FID":313,"cdtabike_i":314,"id":"p314","town":"Green Island","name":"70 Cohoes Ave. Green Island NY 12183","latitude":42.7532,"longitude":-73.6957,"address":"70 Cohoes Ave."}},{"type":"Feature","geometry":{"type":"Point","coordinates":[-73.69572898851258,42.75320199277717]},"properties":{"OGC_FID":314,"cdtabike_i":315,"id":"p315","town":"Schenectady","name":"218 Nott Terrace, Schenectady NY 12307","latitude":42.7532,"longitude":-73.6957,"address":"218 Nott Terrace"}},{"type":"Feature","geometry":{"type":"Point","coordinates":[-73.45293999238991,42.7840750043244]},"properties":{"OGC_FID":315,"cdtabike_i":316,"id":"p316","town":"Grafton","name":"Grafton Lakes State Park Way, Grafton NY 12082","latitude":42.7841,"longitude":-73.4529,"address":"Grafton Lakes State Park Way"}},{"type":"Feature","geometry":{"type":"Point","coordinates":[-73.45142497345917,42.78304698535823]},"properties":{"OGC_FID":316,"cdtabike_i":317,"id":"p317","town":"Grafton","name":"Grafton Lakes State Park Way, Grafton NY 12082","latitude":42.783,"longitude":-73.4514,"address":"Grafton Lakes State Park Way"}},{"type":"Feature","geometry":{"type":"Point","coordinates":[-73.75469497145599,42.696137036896346]},"properties":{"OGC_FID":317,"cdtabike_i":318,"id":"p318","town":"Loudonville","name":"374 Loudon Rd. Loudonville NY 12211","latitude":42.6961,"longitude":-73.7547,"address":"374 Loudon Rd."}},{"type":"Feature","geometry":{"type":"Point","coordinates":[-73.78660200777347,43.07787399155217]},"properties":{"OGC_FID":318,"cdtabike_i":319,"id":"p319","town":"Saratoga Springs","name":"295 Broadway, Saratoga Springs NY 12866","latitude":43.0779,"longitude":-73.7866,"address":"295 Broadway"}},{"type":"Feature","geometry":{"type":"Point","coordinates":[-73.78420998898088,42.65126997239674]},"properties":{"OGC_FID":319,"cdtabike_i":320,"id":"p320","town":"Albany","name":"140 New Scotland Ave, Albany NY 12208","latitude":42.6513,"longitude":-73.7842,"address":"140 New Scotland Ave."}},{"type":"Feature","geometry":{"type":"Point","coordinates":[-73.78283602944877,42.65231897604982]},"properties":{"OGC_FID":320,"cdtabike_i":321,"id":"p321","town":"Albany","name":"140 New Scotland Ave, Albany NY 12208","latitude":42.6523,"longitude":-73.7828,"address":"140 New Scotland Ave."}},{"type":"Feature","geometry":{"type":"Point","coordinates":[-73.78284899570168,42.65084098425607]},"properties":{"OGC_FID":321,"cdtabike_i":322,"id":"p322","town":"Albany","name":"140 New Scotland Ave, Albany NY 12208","latitude":42.6508,"longitude":-73.7828,"address":"140 New Scotland Ave."}},{"type":"Feature","geometry":{"type":"Point","coordinates":[-73.6920369446089,42.72772202040421]},"properties":{"OGC_FID":322,"cdtabike_i":323,"id":"p323","town":"Troy","name":"65 First St. Troy NY 12180","latitude":42.7277,"longitude":-73.692,"address":"65 First St."}},{"type":"Feature","geometry":{"type":"Point","coordinates":[-73.69421399451748,42.727787958227836]},"properties":{"OGC_FID":323,"cdtabike_i":324,"id":"p324","town":"Troy","name":"65 First St. Troy NY 12180","latitude":42.7278,"longitude":-73.6942,"address":"65 First St."}},{"type":"Feature","geometry":{"type":"Point","coordinates":[-73.69296097367308,42.72858495099929]},"properties":{"OGC_FID":324,"cdtabike_i":325,"id":"p325","town":"Troy","name":"65 First St. Troy NY 12180","latitude":42.7286,"longitude":-73.693,"address":"65 First St."}},{"type":"Feature","geometry":{"type":"Point","coordinates":[-73.80712799381557,43.087032007001966]},"properties":{"OGC_FID":325,"cdtabike_i":326,"id":"p326","town":"Saratoga Springs","name":"6 Care Ln. Saratoga Springs NY 12866","latitude":43.087,"longitude":-73.8071,"address":"6 Care Ln."}},{"type":"Feature","geometry":{"type":"Point","coordinates":[-73.7872420409351,43.076708016122176]},"properties":{"OGC_FID":326,"cdtabike_i":327,"id":"p327","town":"Saratoga Springs","name":"247 Broadway, Saratoga Springs NY 12866","latitude":43.0767,"longitude":-73.7872,"address":"247 Broadway"}},{"type":"Feature","geometry":{"type":"Point","coordinates":[-73.85915201764783,43.00154102487806]},"properties":{"OGC_FID":327,"cdtabike_i":328,"id":"p328","town":"Ballston Spa","name":"170 West High St. Ballston Spa NY 12020","latitude":43.0015,"longitude":-73.8592,"address":"170 West High St."}},{"type":"Feature","geometry":{"type":"Point","coordinates":[-73.8508830366586,42.999826040411165]},"properties":{"OGC_FID":328,"cdtabike_i":329,"id":"p329","town":"Ballston Spa","name":"39 West High St. Ballston Spa NY 12020","latitude":42.9998,"longitude":-73.8509,"address":"39 West High St."}}]}